번호,시설명,도로명전체주소,위도(EPSG4326),경도(EPSG4326)
1,현대빌딩 본관 지하2층,"서울특별시 종로구 율곡로 75, 현대빌딩 (계동)",37.57747342,126.9875197
2,대동세무고등학교 본관 지하1층,"서울특별시 종로구 계동길 84-10, 대동세무고등학교 (계동)",37.58105629,126.9874826
3,서울농학교 청각언어훈련센터 지하1층,"서울특별시 종로구 필운대로 103, 국립서울농학교 청각언어훈련센터동 지하1층 (신교동)",37.58413719,126.9688414
4,서울맹학교 초등교육관 지하1층,"서울특별시 종로구 필운대로 97, 국립서울맹학교 초등교육관동 지하1층 (신교동)",37.58419965,126.9682266
6,유림회관 지하1층,"서울특별시 종로구 성균관로 31 (명륜3가, 유림회관)",37.58555951,126.9968403
8,서울대학교병원 융합의학기술원(정림빌딩)지하2층 강당,"서울특별시 종로구 율곡로 214 (연건동, 정림빌딩)",37.57594076,127.0026396
10,창신2동 동대문맨션 지하1층,"서울특별시 종로구 창신길 20 (창신동, 동대문맨션)",37.57247164,127.0107767
11,우리은행창신동지점 지하1층,"서울특별시 종로구 종로 311 (창신동, (주)우리은행창신동지점)",37.57220972,127.0122783
12,지하철3호선 안국역 지하1~3층 대합실 승강장,"서울특별시 종로구 율곡로 지하62, 3호선 안국역 (안국동)",37.57677457,126.9860859
13,극동문제연구소 통일관 지하2층 주차장,"서울특별시 종로구 북촌로15길 2, 극동문제연구소/통일관 지하2층 (삼청동)",37.58665241,126.983538
15,한국방송통신대학교 본관 지하1층~3층 주차장,"서울특별시 종로구 대학로 86, 한국방송통신대학 지하1-3층 (동숭동)",37.57873108,127.0024692
16,KT혜화지사 지하1층 체력단련실,"서울특별시 종로구 대학로 65 (연건동, KT혜화지사)",37.57712822,127.0019755
18,서울지방국세청 지하2~4층,"서울특별시 종로구 종로5길 86 (수송동, 국세청)",37.57401947,126.9795382
19,삼환빌딩 지하1~2층,"서울특별시 종로구 율곡로 88 (운니동, 삼환빌딩)",37.57693621,126.9889218
20,대림빌딩 지하1~2층,"서울특별시 종로구 종로1길 36 (수송동, 대림빌딩)",37.57350297,126.9787766
22,한국무역보험공사빌딩 지하2~4층,"서울특별시 종로구 종로 14 (서린동, 한국무역보험공사빌딩)",37.56989745,126.9789611
23,연합뉴스빌딩 지하2~3층,"서울특별시 종로구 율곡로2길 25 (수송동, 연합뉴스빌딩)",37.57455537,126.9804058
25,교보생명빌딩 지하2~3층,"서울특별시 종로구 종로 1 (종로1가, 교보생명빌딩)",37.57056299,126.9777963
26,태화빌딩 지하1~3층,"서울특별시 종로구 인사동5길 29 (인사동, 태화빌딩)",37.57213699,126.9847691
27,SC제일은행본점 지하2~4층,"서울특별시 종로구 종로 47 (공평동, SC제일은행본점)",37.57061136,126.9825706
28,이마빌딩 지하2~3층,"서울특별시 종로구 종로1길 42 (수송동, 이마빌딩)",37.57401456,126.978772
29,동십자각지하도 지하1층,"서울특별시 종로구 삼청로 1 (세종로, 동십자각)",37.57609509,126.979412
30,지하철1호선 종각역 대합실 승강장 지하1~2층,"서울특별시 종로구 종로 지하 55 (종로1가, 종각지하철역사)",37.57028699,126.9836104
31,종로2가 지하상가 지하1층,"서울특별시 종로구 종로 지하 73 (종로1가, 종각지하철역사)",37.57027844,126.9856757
32,석탄회관빌딩 지하2~3층,"서울특별시 종로구 종로5길 58 (수송동, 석탄회관빌딩)",37.57285286,126.9801836
33,코리안리재보험빌딩 지하1~3층,"서울특별시 종로구 종로5길 68 (수송동, 코리안리재보험빌딩)",37.57331087,126.9801252
34,광화문우체국 지하1층,"서울특별시 종로구 종로 6 (서린동, 광화문우체국)",37.57001392,126.9780543
36,피카디리플러스 지하5~7층,"서울특별시 종로구 돈화문로5가길 1 (돈의동, 피카디리플러스)",37.57089532,126.9916315
38,지하철3호선 종로3가역 대합실 승강장 지하1~4층,"서울특별시 종로구 돈화문로 지하 30 (묘동, 3호선 종로3가역)",37.57117082,126.9920424
39,지하철1호선 종로3가역 대합실 승강장 지하1~2층,"서울특별시 종로구 종로 지하 129 (종로3가, 1호선 종로3가역)",37.57051667,126.9920003
40,서울혜화경찰서 지하1층,"서울특별시 종로구 창경궁로 112-16 (인의동, 서울혜화경찰서)",37.57234547,126.9986511
42,인의빌딩 지하2~4층,"서울특별시 종로구 창경궁로 112-7 (인의동, 인의빌딩)",37.57250827,126.9982079
43,국일관 드림팰리스 지하3~6층,"서울특별시 종로구 수표로 96 (관수동, 국일관 드림팰리스)",37.56973543,126.9896416
44,종묘공영주차장 지하2~5층,"서울특별시 종로구 종로 157, 종묘공원 (훈정동)",37.57098022,126.9951311
45,종로4가지하상가 지하1층,서울특별시 종로구 종로 191-3 (종로4가),37.57096319,126.9990265
48,지하철3호선 경복궁역 대합실 승강장,"서울특별시 종로구 사직로 지하130, 3호선 경복궁역 지하1~3층 (적선동)",37.57578807,126.9731591
49,광화문사거리 지하1층 지하중앙보도,"서울특별시 종로구 세종대로 지하172, 5호선 광화문역 지하1~3층 (세종로)",37.57165012,126.9771564
50,해치마당(광화문 책마당) 지하1층,"서울특별시 종로구 세종대로 지하172, 5호선 광화문역 (세종로)",37.57165012,126.9771564
51,종로구문화체육센터 지하1~2층,"서울특별시 종로구 인왕산로1길 21, 종로문화체육센터 지하1~2층 (사직동)",37.57427904,126.9644924
52,세종문화회관 지하2층 세종·충무공이야기 전시관,서울특별시 종로구 세종대로 175(세종로),37.57200989,126.9763071
53,세양빌딩 지하2~3층,"서울특별시 종로구 사직로8길 39, 세양빌딩 지하1층 (내자동)",37.5741787,126.9730015
54,적선현대빌딩 지하주차장 2~4층,"서울특별시 종로구 사직로 130, 적선현대빌딩 지하1층 (적선동)",37.57557082,126.9733078
55,광화문플래티넘 빌딩  지하2~3층,"서울특별시 종로구 새문안로5가길 28, 광화문 플래티넘 지하1~2층 (적선동)",37.57442585,126.9734536
56,세종로공영주차장 지하1~5층,"서울특별시 종로구 세종대로 지하189, 세종로지하주차장 지하1~5층 (세종로)",37.573279,126.9762783
57,도렴빌딩 지하1~2층,"서울특별시 종로구 새문안로5길 37, 도렴빌딩 지하1~2층 (도렴동)",37.57367597,126.9742873
58,미도파광화문빌딩 지하2층,"서울특별시 종로구 세종대로23길 47, 지하1층 (당주동)",37.57148576,126.9736936
59,동원빌딩  지하1층,"서울특별시 종로구 새문안로3길 15, 동원빌딩 지하1층 (당주동)",37.57171564,126.972443
60,로얄빌딩 지하2층,"서울특별시 종로구 새문안로5길 19, 로얄빌딩 지하1층 (당주동)",37.57203484,126.9744974
61,현대해상본사빌딩 지하2층,"서울특별시 종로구 세종대로 163, 현대해상빌딩 지하1~2층 (세종로)",37.57094656,126.9763505
62,세종빌딩 지하1층,"서울특별시 종로구 세종대로23길 54, 세종빌딩, 세종아파트 지하1층 (당주동)",37.57175171,126.9733657
63,시티빌딩 지하1층,"서울특별시 종로구 새문안로 50, 한국씨티은행 본점 지하1층 (신문로2가)",37.56905845,126.9706755
66,무악현대아파트 지하1층,"서울특별시 종로구 통일로 246-20, 110동 지하1층 (무악동, 무악현대아파트)",37.57476317,126.9593421
67,무악현대임대아파트 지하2층,"서울특별시 종로구 통일로 246-11, 113동 지하2층 (무악동, 무악현대아파트)",37.57482248,126.9586101
68,독립문초등학교 지하1층,"서울특별시 종로구 통일로12길 23 (무악동, 독립문초등학교)",37.5737936,126.9604856
69,지하철5호선 서대문역 대합실 승강장,"서울특별시 종로구 통일로 지하126, 서대문역 2층 (평동)",37.56598826,126.9667036
70,강북삼성병원 지하2층,"서울특별시 종로구 새문안로 29, 강북삼성병원 지하2층 (평동)",37.56812827,126.9685924
71,서대문장로교회 지하1층,"서울특별시 종로구 통일로8길 16 (송월동, 서대문장로교회)",37.56950318,126.9653988
73,종로구민회관 지하2층,"서울특별시 종로구 지봉로5길 7-5 (창신동, 종로구구민회관, 보건소통합청)",37.57342693,127.0146928
74,창신성결교회 지하1층,"서울특별시 종로구 창신5길 22 (창신동, 창신성결교회)",37.57368401,127.0118341
75,서울명신초등학교 지하1층,"서울특별시 종로구 낙산길 250 (창신동, 서울명신초등학교)",37.58210445,127.014819
77,"지하철6호선 창신역 대합실 승강장(지하 1,4층)","서울특별시 종로구 지봉로 지하 112 (창신동, 6호선 창신역)",37.5800304,127.015296
79,가톨릭대학교성신교정 지하1층,"서울특별시 종로구 창경궁로 296-12 (혜화동, 가톨릭대학교성신교정)",37.58642554,127.0032353
80,"혜성교회, 혜성유치원 지하1층","서울특별시 종로구 혜화로6가길 34 (혜화동, 혜성유치원)",37.59057257,127.0010019
81,명륜교회 지하1층,"서울특별시 종로구 혜화로3길 6 (명륜1가, 명륜교회)",37.58635747,126.9999839
82,명륜프라자 지하2~3층,"서울특별시 종로구 창경궁로 260 (명륜2가, 명륜프라자)",37.58441274,127.0004806
83,"동원빌딩, 한성대학교에듀센터 지하1층","서울특별시 종로구 창경궁로 254 (명륜2가, 동원빌딩)",37.5838836,126.999988
84,광원빌딩 지하1층,서울특별시 종로구 창경궁로 230 (명륜4가),37.58227886,126.9982065
85,지하철4호선 혜화역 대합실 승강장,"서울특별시 종로구 대학로 지하 120 (명륜4가, 4호선 혜화역)",37.58184728,127.0020068
86,혜화동씨티밸리 지하3층,"서울특별시 종로구 대학로 146 (혜화동, 두레빌딩)",37.58430711,127.0018639
87,지하철1호선 종로5가역 대합실 승강장 지하2층,"서울특별시 종로구 종로 지하 216 (종로5가, 1호선 종로5가역)",37.57082789,127.0016237
88,동대문전철역지하상가 지하1층,"서울특별시 종로구 율곡로 지하308, 4호선 동대문역 (종로6가)",37.57037804,127.0093889
89,여전도회관 지하1층,"서울특별시 종로구 율곡로 190 (연지동, 여전도회관)",37.57575733,126.9997679
90,서울보증보험 지하2~5층,서울특별시 종로구 김상옥로 29 (연지동),37.57349499,127.0008597
91,삼양사 지하1층,"서울특별시 종로구 종로33길 31 (연지동, 삼양사)",37.57256246,127.0015556
92,"연강빌딩, 두산아트센터 지하1~5층","서울특별시 종로구 종로33길 15 (연지동, 두산아트센터)",37.57185706,127.0012707
93,현대그룹빌딩 지하1층,"서울특별시 종로구 율곡로 194 (연지동, 현대그룹빌딩)",37.57559803,127.000266
94,종오지하쇼핑센터 지하1층,"서울특별시 종로구 종로 지하 200 (종로5가, 종오지하쇼핑센터)",37.57075775,126.9999428
95,지하철1호선 동묘앞역 대합실 승강장 지하1층,"서울특별시 종로구 종로 359, 동묘앞역 지하1층 (숭인동)",37.57367267,127.0173731
96,숭인상가아파트 지하1층,"서울특별시 종로구 청계천로 391, 지하1층 (숭인동, 숭인상가아파트)",37.57210126,127.0207102
97,서진빌딩 지하1층,"서울특별시 종로구 난계로 247, 서진빌딩 지하1층 (숭인동)",37.57368581,127.0230656
98,진형빌딩 지하1층,"서울특별시 종로구 종로 386, 진형빌딩 지하1층 (숭인동)",37.57420241,127.0202077
100,서울대학교병원 의학연구혁신센터 지하4층 주차장,"서울특별시 종로구 대학로 71, 서울대학교병원 의학연구혁신센터 (연건동)",37.57766231,127.0018746
101,금호팔레스빌딩 지하1~2층,"서울특별시 종로구 지봉로 29 (창신동, 금호팔레스빌딩)",37.57260822,127.015377
102,시즌빌딩 지하2~5층,"서울특별시 종로구 지봉로 19 (창신동, 삼우텍스프라자)",37.57174164,127.0154677
103,두산아파트 지하1~2층,"서울특별시 종로구 지봉로5길 7 (창신동, 두산아파트)",37.57440424,127.015099
104,지하철1호선 동대문역 대합실 승강장,"서울특별시 종로구 종로 지하 302 (창신동, 1호선 동대문역)",37.57174874,127.0112905
105,지하철4호선 동대문역 대합실 지하4층 승강장,"서울특별시 종로구 율곡로 지하 308 (종로6가, 4호선동대문역)",37.57037804,127.0093889
106,동신교회 지하1층,"서울특별시 종로구 종로44길 43 (창신동, 동신교회,동신교회교육관)",37.57077886,127.0126781
108,지하철6호선 동묘앞역 대합실 승강장,"서울특별시 종로구 지봉로 지하24, 6호선 동묘앞역 (숭인동)",37.57220012,127.0157409
109,서울영천교회 지하1층,"서울특별시 종로구 통일로12길 14 (행촌동, 영천교회)",37.57337112,126.960246
110,"성균관대학교 600주년기념관 지하2,3,4층","서울특별시 종로구 성균관로 25-2 (명륜3가, 성균관대학교)",37.58490742,126.9969489
111,인왕산아이파크아파트 주차장 지하2층,"서울특별시 종로구 통일로16길 8-3, 109동 지하1층 (무악동, 인왕산아이파크)",37.57610871,126.9575398
112,지하철5호선 광화문역 지하1~3층 대합실 승강장,"서울특별시 종로구 세종대로 지하172, 5호선 광화문역 지하1~3층 (세종로)",37.57165012,126.9771564
114,두산위브파빌리온 지하2~3층,"서울특별시 종로구 삼봉로 81 (수송동, 두산위브파빌리온)",37.57231071,126.9817339
115,"GS건설, 그랑서울 지하2~7층",서울특별시 종로구 종로 33 (청진동),37.57044711,126.981149
116,광화문역연결 청진지하공공보도,"서울특별시 종로구 세종대로 지하172, 5호선 광화문역 (세종로)",37.57165012,126.9771564
117,동아일보사 지하2~4층,"서울특별시 종로구 청계천로 1 (서린동, 동아일보사)",37.56947758,126.9777964
118,신교공영주차장 지하1층~4층,"서울특별시 종로구 자하문로 89, 종로구 장애인복지관 및 푸르메재활센터(신교공영주차장) (신교동)",37.58397861,126.9700902
119,상명대학교 박물관 지하주차장,"서울특별시 종로구 평창문화로 151, 지하주차장 (평창동)",37.61040055,126.9763074
120,창진파크팰리스 지하1층(공사 중 진입 불가),"서울특별시 종로구 평창문화로 87, 창진파크팰리스 지하1층 (평창동)",37.60704718,126.9708075
121,서울세검정초등학교 지하2층,"서울특별시 종로구 세검정로9길 1 (신영동, 서울세검정초등학교)",37.60315311,126.9613671
122,상명대학교 미래백년관 지하2층~3층,"서울특별시 종로구 홍지문2길 20 (홍지동, 상명대학교)",37.60182057,126.9549752
123,상명대학교 자하관 지하1층,"서울특별시 종로구 홍지문2길 20 (홍지동, 상명대학교)",37.60182057,126.9549752
124,올림픽기념 국민생활관 지하1층,"서울특별시 종로구 성균관로 91 (혜화동, 국민생활관)",37.59001485,126.9989839
125,종로청계힐스테이트아파트 지하1층,"서울특별시 종로구 숭인동길 21, 지하1층 (숭인동, 종로청계힐스테이트)",37.57589564,127.0215821
128,인왕산2차 아이파크아파트 지하1층,"서울특별시 종로구 통일로18길 34, 201동 지하1층 (무악동, 인왕산2차아이파크아파트)",37.57608414,126.9591183
129,원서빌딩 지하주차장 1층,"서울특별시 종로구 창덕궁1길 13, 원서빌딩 (원서동)",37.57922844,126.988435
130,경희궁롯데캐슬아파트 지하2층,"서울특별시 종로구 통일로 230 (무악동, 경희궁롯데캐슬)",37.57350961,126.9594371
131,SK에코플랜트 수송스퀘어 지하2~6층,"서울특별시 종로구 율곡로2길 19, 수송스퀘어 (수송동)",37.57470121,126.9808903
132,삼성아파트 지하주차장 1~2층,"서울특별시 종로구 평창문화로 172 (평창동, 삼성아파트)",37.61102289,126.9785255
133,반얀트리클럽앤스파서울 지하1~2층,"서울특별시 중구 장충단로 60 (장충동2가, 반얀트리 클럽 앤 스파 서울)",37.55112382,127.0008558
134,3호선약수역지하철승강장,"서울특별시 중구 다산로 지하122, 약수역 3호선 (신당동)",37.5546655,127.0107423
135,서울역우체국앞지하보도,"서울특별시 중구 통일로 21 (봉래동2가, 서울역앞우체국)",37.55753891,126.9714441
136,단암타워빌딩 지하1~2층,"서울특별시 중구 소월로 10 (남대문로5가, 단암빌딩)",37.55862615,126.9755494
137,앰배서더호텔 지하1~2층,"서울특별시 중구 동호로 287 (장충동2가, 그랜드앰배서더서울)",37.56011825,127.0025949
138,천수빌딩KEB하나은행 지하1층,"서울특별시 중구 수표로 67 (수표동, 외환은행)",37.5672849,126.9894369
139,금세기빌딩 지하2~3층,"서울특별시 중구 무교로 6 (을지로1가, 금세기빌딩)",37.56645417,126.9793483
140,시청광장지하쇼핑센터,"서울특별시 중구 을지로 지하 12 (을지로1가, 시청광장지하쇼핑센터)",37.56596076,126.9790878
141,을지로입구지하쇼핑센터,"서울특별시 중구 을지로 지하58, 을지로입구지하쇼핑센터 (을지로2가)",37.56611285,126.9841529
142,3호선동대입구역지하철승강장,"서울특별시 중구 동호로 지하 256 (장충동2가, 동대입구역 3호선)",37.55909277,127.0054297
143,선일빌딩3호선약수역지하철승강장,"서울특별시 중구 동호로 191 (신당동, 선일빌딩)",37.5550718,127.010105
144,을지로지하상가,"서울특별시 중구 을지로 지하 88 (을지로2가, 을지로2구역지하쇼핑)",37.56616366,126.9875666
145,2호선을지로입구역지하철승강장,"서울특별시 중구 을지로 지하 42 (을지로1가, 을지로입구역 2호선)",37.56603591,126.9823594
146,신당지하쇼핑센터,"서울특별시 중구 퇴계로85길 지하 56 (황학동, 신당지하쇼핑센터)",37.56832854,127.0196177
148,조양빌딩신관 지하1~2층,"서울특별시 중구 삼일대로6길 5, 조양빌딩신관 (충무로2가)",37.5624755,126.9893118
149,한국은행앞지하보도,"서울특별시 중구 남대문로 39 (남대문로3가, 한국은행건물)",37.56165608,126.980097
150,롯데백화점 본점 지하주차장 2~7층,"서울특별시 중구 남대문로 81 (소공동, 롯데백화점 본점)",37.564616,126.9820648
151,삼성본관 지하2~3층,"서울특별시 중구 세종대로 67 (태평로2가, 삼성본관빌딩)",37.56238571,126.9758541
152,대한상공회의소 지하3층,"서울특별시 중구 세종대로 39 (남대문로4가, 대한서울상공회의소)",37.56045247,126.9738934
153,프라자호텔 지하2층,"서울특별시 중구 소공로 119 (태평로2가, 서울프라자호텔)",37.56475785,126.9781798
154,2호선시청역지하철승강장,"서울특별시 중구 서소문로 지하 127 (서소문동, 시청역 2호선)",37.56356784,126.9752686
155,소공지하쇼핑센터,"서울특별시 중구 소공로 지하 102 (남대문로2가, 소공지하쇼핑센터)",37.56385499,126.979618
156,소공지하도상가,"서울특별시 중구 소공로 116 (소공동, 서울센타빌딩)",37.56490653,126.9788558
157,남대문로지하쇼핑센터,"서울특별시 중구 남대문로 지하14, 남대문로지하쇼핑센터 (남대문로3가)",37.56085909,126.9773518
158,남대문앞지하보도,"서울특별시 중구 세종대로 50 (남대문로4가, 흥국생명빌딩)",37.56082696,126.9760652
159,4호선회현역지하철승강장,"서울특별시 중구 퇴계로 지하 54 (남창동, 회현역 4호선)",37.558551,126.9783017
160,부영빌딩 지하3층,"서울특별시 중구 세종대로9길 42, 부영빌딩 (서소문동)",37.56160903,126.9736473
161,남산입구지하보도,"서울특별시 중구 소월로 3 (남창동, 롯데손해보험빌딩)",37.55938552,126.9760697
162,서울역앞지하보도,"서울특별시 중구 세종대로 지하2, 서울역 1호선 (남대문로5가)",37.55692795,126.9725564
163,삼익패션타운 지하2~4층,서울특별시 중구 남대문시장8길 7(남창동),37.56014428,126.9788324
164,1호선시청역지하철승강장,"서울특별시 중구 세종대로 지하 101 (정동, 시청역 1호선)",37.5654719,126.976993
165,명동역지하철승강장,"서울특별시 중구 퇴계로 지하 126 (충무로2가, 명동역 4호선)",37.56090471,126.9859111
166,덕수궁앞지하보도,"서울특별시 중구 세종대로 124 (태평로1가, 프레스센터)",37.56730164,126.9776982
167,3호선충무로역지하철승강장,"서울특별시 중구 퇴계로 지하214, 충무로역 3,4호선 (필동2가)",37.5614376,126.9955382
168,3호선을지로3가역지하철승강장,"서울특별시 중구 을지로 지하106, 을지로3가역 2호선 (을지로3가)",37.56624384,126.9902818
169,연세봉래빌딩 지하1~3층,"서울특별시 중구 칠패로 36 (봉래동1가, 연세봉래빌딩)",37.55951105,126.9727851
170,회현지하쇼핑센터,"서울특별시 중구 소공로 지하 58 (충무로1가, 회현지하쇼핑센터)",37.56043831,126.9820613
171,명동지하쇼핑센터,"서울특별시 중구 남대문로 지하 72 (남대문로2가, 명동지하쇼핑센터)",37.56363702,126.9820766
172,6호선버티고개역지하철승강장,"서울특별시 중구 다산로 지하 38 (신당동, 버티고개역 6호선)",37.54794357,127.0069773
173,6호선신당역지하철승강장,"서울특별시 중구 다산로 지하 260 (흥인동, 신당역 6호선)",37.56624437,127.0161749
174,6호선약수역지하철승강장,"서울특별시 중구 다산로 지하 115 (신당동, 약수역 6호선)",37.55412449,127.0102533
175,청구역지하철승강장,"서울특별시 중구 청구로 지하 77 (신당동, 청구역 5,6호선)",37.56022965,127.0137596
176,을지로3구역지하쇼핑센터,"서울특별시 중구 을지로 지하131, 을지로3구역지하쇼핑 (을지로3가)",37.56638343,126.99263
177,1호선서울역지하철승강장,"서울특별시 중구 세종대로 지하 2 (남대문로5가, 서울역 1호선)",37.55692795,126.9725564
178,한국경제신문사 지하1~5층,"서울특별시 중구 청파로 463 (중림동, 한국경제신문사빌딩)",37.56070415,126.9676221
179,을지로4가역지하철승강장,"서울특별시 중구 을지로 지하 178 (을지로4가, 을지로4가역 2호선)",37.56661003,126.997811
180,2호선을지로3가역지하철승강장,"서울특별시 중구 을지로 지하 106 (을지로3가, 을지로3가역 2호선)",37.56624384,126.9902818
181,4호선충무로역지하철승강장,"서울특별시 중구 퇴계로 지하214, 충무로역 3,4호선 (필동2가)",37.5614376,126.9955382
182,묵정공원공영주차장 지하1~5층,"서울특별시 중구 퇴계로45길 32-12 (충무로5가, 묵정경노당)",37.56371583,126.9997943
184,중구청 지하1~3층,"서울특별시 중구 창경궁로 17 (예관동, 중구청)",37.5638811,126.9981803
185,쌍림빌딩 지하1층,"서울특별시 중구 퇴계로 286 (쌍림동, 쌍림빌딩)",37.56321394,127.0035511
186,을지로4구역지하쇼핑센터,"서울특별시 중구 을지로 지하 218 (을지로5가, 을지로4구역지하쇼핑)",37.56686789,127.0022931
187,동대문역사문화공원역지하철승강장,"서울특별시 중구 을지로 지하 279 (을지로7가, 동대문역사문화공원역 2호선)",37.56562587,127.0091546
188,청계5가지하쇼핑센터,"서울특별시 중구 동호로 지하 384 (방산동, 청계5가지하쇼핑센터)",37.56877078,127.0021377
189,중구구민회관 지하1~3층,"서울특별시 중구 을지로39길 40 (을지로6가, 구민회관)",37.56840432,127.005461
190,2호선신당역지하철승강장,서울특별시 중구 퇴계로 지하 431-1 (신당동),37.56566881,127.0195551
191,중구종합복지센터 지하1~2층,"서울특별시 중구 퇴계로 460, 중구종합복지센터 (신당동)",37.56514144,127.0227952
192,에이피엠 지하2~3층,"서울특별시 중구 마장로 40 (신당동, apM)",37.56782067,127.0139128
193,삼성홈타운신당아파트 지하주차장 1층,"서울특별시 중구 다산로42가길 43 (신당동, 삼성홈타운신당아파트)",37.56280295,127.0168322
194,신당동파라다이스아파트 지하주차장 1층,"서울특별시 중구 다산로42나길 46 (신당동, 신당동 파라다이스 아파트)",37.56253709,127.0174886
195,신당현대아파트 관리동 지하 2층,"서울특별시 중구 다산로36길 109 (신당동, 현대아파트)",37.55976779,127.0201091
196,신당삼성아파트 지하주차장,"서울특별시 중구 청구로1길 23 (신당동, 삼성아파트)",37.55840435,127.0167041
197,약수하이츠아파트 지하주차장,"서울특별시 중구 동호로10길 30 (신당동, 약수하이츠)",37.55491104,127.0123438
198,경향아트힐 지하1층,서울특별시 중구 정동길 3 (정동),37.56807891,126.9696352
199,대한항공 지하1~4층,"서울특별시 중구 서소문로 117 (서소문동, 대한항공빌딩)",37.56342337,126.9741672
200,농협중앙회 지하2~3층,"서울특별시 중구 새문안로 16 (충정로1가, 농업협동조합중앙회건물)",37.56684474,126.9680516
201,신당푸르지오아파트 지하주차장 1~3층,"서울특별시 중구 다산로36길 110 (신당동, 신당푸르지오)",37.55936835,127.0203027
202,남산타운아파트2(임대동) 지하1층,"서울특별시 중구 다산로 32 (신당동, 남산타운)",37.54759663,127.0067091
203,서울역디오빌 지하1~3층,"서울특별시 중구 만리재로 193 (만리동1가, 서울역 디오빌)",37.5549501,126.9671934
204,남산타운아파트1 (분양동)지하1층,"서울특별시 중구 다산로 32 (신당동, 남산타운)",37.54759663,127.0067091
205,중구청소년수련관 지하,"서울특별시 중구 동호로5길 19 (신당동, 중구청소년수련관)",37.55189629,127.0124087
206,남산타운문화체육센터 지하1층,"서울특별시 중구 다산로 32 (신당동, 남산타운)",37.54759663,127.0067091
207,손기정체육공원 지하주차장1~2층,"서울특별시 중구 손기정로 101 (만리동2가, 손기정공원)",37.55545537,126.9648206
208,중구회현체육센터 지하1층,"서울특별시 중구 퇴계로12길 78 (회현동1가, 중구회현체육센터)",37.55618587,126.9816407
209,서울특별시청 지하1~4층,"서울특별시 중구 세종대로 110 (태평로1가, 서울시청)",37.56620502,126.9777063
210,베네치아메가몰 지하3~4층,"서울특별시 중구 청계천로 400 (황학동, 롯데캐슬베네치아)",37.5715296,127.0217697
211,엘크루메트로시티 지하2~6층,"서울특별시 중구 충무로 13 (충무로3가, 엘크루메트로시티)",37.56237207,126.9928398
212,용산도서관 민방위대피시설(지하1층),"서울특별시 용산구 두텁바위로 160 (후암동, 용산도서관)",37.55208925,126.9798494
213,녹사평역(지하1~5층),"서울특별시 용산구 녹사평대로 지하195, 6호선 녹사평역 지하1~5층 (용산동4가)",37.53496414,126.9868758
215,전쟁기념사업회(지하1~2층),"서울특별시 용산구 이태원로 29, 전쟁기념관 지하1~2층 (용산동1가)",37.53496757,126.9772823
216,숙대입구역(지하1~2층),"서울특별시 용산구 한강대로 지하306, 숙대입구역 지하1~2층 (갈월동)",37.5452479,126.9719097
218,예안빌딩(아트센타)(지하1~3층),"서울특별시 용산구 한강대로 329, 지하1~3층 (갈월동)",37.54777397,126.9715159
219,남영동주민센터(지하1층),"서울특별시 용산구 두텁바위로 25, 남영동 주민센터 지하1층층 (갈월동)",37.54557648,126.9749662
220,소화아동병원(지하1층),"서울특별시 용산구 청파로 383, 종근당건강빌딩 지하 1층 (서계동)",37.5537591,126.9687695
221,숙명여자대학교(지하1~2층),"서울특별시 용산구 청파로47길 100, 숙명여자대학교 지하 1~3층 (청파동2가)",37.54531633,126.9648827
222,리버힐삼성아파트(지하1~4층),"서울특별시 용산구 효창원로 17, 지하1~4층 (산천동, 리버힐삼성아파트)",37.53463692,126.9514069
223,효창공원앞역(지하1~3층),"서울특별시 용산구 백범로 지하 287 (효창동, 6호선효창공원앞역)",37.53941679,126.9611995
224,도원삼성래미안아파트(지하1층~지하4층),"서울특별시 용산구 새창로 70 (도원동, 삼성래미안아파트)",37.53968201,126.9569394
225,삼각지역(지하1~4층),"서울특별시 용산구 한강대로 지하180, 4호선 삼각지역 지하1~4층 (한강로1가)",37.53464417,126.9731128
226,신용산역(지하1~2층),"서울특별시 용산구 한강대로 지하112, 4호선 신용산역 지하1~2층 (한강로2가)",37.52967649,126.9684497
227,LS용산타워(국제빌딩)(지하1~4층),"서울특별시 용산구 한강대로 92, LS용산타워 지하1~4층 (한강로2가)",37.52821733,126.9673657
228,지하철 이촌역(지하1~2층),"서울특별시 용산구 서빙고로 지하83, 4호선 이촌역 지하1~2층 (용산동5가)",37.52266385,126.9733895
231,이촌1동주민센터(지하 1~2층),"서울특별시 용산구 이촌로71길 24, 이촌제1동주민센터, 용산청소년수련관 지하 1~2층 (이촌동)",37.52138084,126.9731056
232,이촌동 대림아파트(지하1~2층),"서울특별시 용산구 이촌로2가길 122, 지하1~2층 (이촌동, 대림아파트)",37.52500187,126.9553859
233,이촌동 현대한강아파트(지하1~2층),"서울특별시 용산구 이촌로34길 29, 지하1~2층 (이촌동, 현대한강아파트)",37.52319751,126.9584832
234,이촌동 북한강아파트( 지하1~2층),"서울특별시 용산구 이촌로2가길 66, 지하1~2층 (이촌동, 북한강아파트)",37.52703663,126.9540163
235,청화아파트(지하1층),"서울특별시 용산구 장문로 27, 청화아파트 지하층 (이태원동, 청화아파트)",37.52817566,126.9934417
236,해밀턴호텔(지하3~4층),"서울특별시 용산구 이태원로 179, 해밀톤호텔 (본관) 지하 3~4층 (이태원동)",37.53463421,126.9938776
237,지하철 이태원역(지하1~5층),"서울특별시 용산구 이태원로 지하177, 6호선 이태원역 지하층 (이태원동)",37.53448842,126.9936134
238,이태원 지하보도(지하1층),서울특별시 용산구 녹사평대로 228 (이태원동),37.53794729,126.9869376
239,순천향대학병원(지하1~2층),"서울특별시 용산구 대사관로 59, 순천향대학병원 신관 지하 1~2층 (한남동)",37.53344884,127.0047224
240,여선교회전국연합회관(지하1층),"서울특별시 용산구 독서당로 98, 지하 1층 (한남동)",37.53508504,127.0113738
241,하얏트호텔(지하1~2층),"서울특별시 용산구 소월로 322, 하얏트호텔 지하 1~2층 (한남동)",37.54042996,126.9968627
242,제일기획빌딩(지하3~4층),"서울특별시 용산구 이태원로 222, 제일기획 (한남동)",37.5349828,126.9987573
243,지하철 한강진역(지하1~4층),"서울특별시 용산구 이태원로 지하287, 6호선 한강진역 지하 4층 (한남동)",37.5402226,127.0016904
244,모투스컴퍼니(지하3층),"서울특별시 용산구 녹사평대로11길 58 (서빙고동, 모투스 엔 실버불렛 사옥)",37.52079016,126.9936079
245,한국폴리텍대학 서울정수캠퍼스 본관동 지하1층,"서울특별시 용산구 보광로 73 (보광동, 한국폴리텍1대학서울정수캠퍼스)",37.53001853,126.9968096
246,보광동신동아아파트 지하1층,"서울특별시 용산구 장문로 104 (보광동, 신동아아파트)",37.52617458,127.0012002
247,보광동주민센터 지하1~2층,"서울특별시 용산구 장문로 95 (보광동, 보광동 주민센터)",37.52620994,127.0002528
248,용문동주민센터(지하1층~지하3층),"서울특별시 용산구 새창로12길 13 (도원동, 용문동 주민센터)",37.53901501,126.9575683
249,브라운스톤남산아파트(지하2층),"서울특별시 용산구 후암로 65 (후암동, 브라운스톤 남산아파트)",37.55176624,126.9767589
250,세방리버하이빌(지하1층),"서울특별시 용산구 효창원로15길 16, 지하1층 (신창동, 세방리버하이빌)",37.53603137,126.9533794
251,청암자이아파트(지하1~2층),"서울특별시 용산구 삼개로 60, 지하1~2층 (청암동, 천년명가 청암자이)",37.53511122,126.9483678
252,이촌동 LG한강자이아파트(지하1~2층),"서울특별시 용산구 이촌로64길 15, 지하 1~!층 (이촌동, 엘지한강자이아파트)",37.52015684,126.9703697
253,한남동 현대홈타운(지하1~2층),"서울특별시 용산구 장문로 141, 지하 1~2층 (한남동, 한남힐스테이트)",37.52813016,127.0047191
254,서빙고 금호베스트빌(지하1~2층),"서울특별시 용산구 서빙고로51길 68-14 (서빙고동, 금호베스트빌)",37.52338009,126.9917623
255,국립중앙박물관(지하1~2층),"서울특별시 용산구 서빙고로 137 (용산동6가, 국립중앙박물관)",37.52116819,126.9791297
256,서빙고동주민센터(지하1~2층),"서울특별시 용산구 서빙고로 279 (서빙고동, 서빙고동주민센터)",37.52041442,126.9946736
257,청파동주민센터(지하1~2층),"서울특별시 용산구 청파로49길 6, 청파동 주민센터 지하 1~2층 (청파동2가)",37.54535054,126.9699668
258,씨제이나인파크(지하1~3층),"서울특별시 용산구 백범로90다길 12, 지하1~3층 (문배동, 용산씨제이나인파크)",37.53612842,126.9696234
259,효창동 청마루아파트(지하1~2층),"서울특별시 용산구 백범로 250 (효창동, 세양청마루아파트)",37.54078381,126.9573029
260,이태원2동주민센터(지하1층),"서울특별시 용산구 회나무로13길 58 (이태원동, 이태원제2동주민센터)",37.54193889,126.9901495
261,리버빌아파트 지하1층,"서울특별시 용산구 보광로5길 40 (보광동, 리버빌아파트)",37.52438802,127.0011445
262,아크로타워(지하1~3층),"서울특별시 용산구 백범로90길 26, 지하1~3층 (문배동, 용산아크로타워)",37.53703834,126.9690187
263,이촌2동주민센터(지하1~2층),"서울특별시 용산구 이촌로18길 20, 이촌2동 주민센터 지하1~2층 (이촌동)",37.52624014,126.9547166
264,에이치제이중공업건설부문 남영동사옥(지하1~5층),"서울특별시 용산구 한강대로71길 4, 갈월동 오피스 지하1~5층 (갈월동)",37.5403761,126.9727988
265,시티파크1단지(지하1~3층),"서울특별시 용산구 서빙고로 35, 지하1~3층 (한강로3가, 용산시티파크1단지)",37.52445557,126.9686829
266,시티파크2단지(지하1~3층),"서울특별시 용산구 서빙고로 31, 지하1~3층 (한강로3가, 용산 시티파크2단지)",37.52640953,126.9697396
267,효창동주민센터(지하1층),"서울특별시 용산구 효창원로 161 (효창동, 효창동 주민센터)",37.54250142,126.9619684
268,용산구청(지하2~5층),"서울특별시 용산구 녹사평대로 150, 용산구종합행정타운 지하 2~5층 (이태원동)",37.532186,126.9902789
269,서울역(4호선)(지하1~2층),"서울특별시 용산구 한강대로 지하392, 4호선 서울역 지하1~2층 (동자동)",37.55320348,126.9727536
270,용산파크자이(지하1~5층),"서울특별시 용산구 한강대로 205,  지하1~5층 (한강로1가, 용산파크자이)",37.53660745,126.9738792
271,YTN서울타워(지하1층),"서울특별시 용산구 남산공원길 105 (용산동2가, YTN서울타워)",37.55107263,126.9878925
272,현대아이파크몰(용산역) ( 지하1~3층),"서울특별시 용산구 한강대로23길 55, 용산역 지하1~3층 (한강로3가)",37.5291285,126.9654886
273,효창파크푸르지오(지하2~3층),"서울특별시 용산구 백범로 260 (효창동, 효창파크푸르지오)",37.54041876,126.9582055
274,용산푸르지오파크타운(지하1~2층),"서울특별시 용산구 장문로6길 76 (동빙고동, 용산푸르지오파크타운)",37.5263975,126.9951382
275,센트레빌아스테리움서울(지하2~9층),"서울특별시 용산구 한강대로 372, 지하2~9층 (동자동, 센트레빌아스테리움서울)",37.55134898,126.9733433
276,파크타워(지하1~4층),"서울특별시 용산구 서빙고로 67, 지하1~4층 (용산동5가, 파크타워)",37.52406541,126.9719634
277,후암동 주민센터(지하1층),"서울특별시 용산구 후암로 32-6 (후암동, 후암동 주민센터)",37.54874516,126.9781597
278,혜심원(지하1층),서울특별시 용산구 소월로2나길 18 (후암동),37.55343016,126.9775218
279,브라운스톤 용산(지하1~2층),"서울특별시 용산구 효창원로 88 (용문동, 브라운스톤용산)",37.53671792,126.9589344
280,원효로2동 주민센터(지하1층),"서울특별시 용산구 효창원로8길 3, 원효로제2동 주민센터 지하1층 (산천동)",37.53438596,126.9514797
281,용산2가동 주민센터(지하1~3층),"서울특별시 용산구 신흥로 90, 용산2가동 주민센터, 용산치안센터 지하1~3층 (용산동2가)",37.54590294,126.985558
283,대한적십자사 서울지사 지하주차장(지하1층),"서울특별시 성동구 고산자로 356, 대한적십자 지하1층 (마장동)",37.57135952,127.038198
284,KT행당빌딩 지하1층,"서울특별시 성동구 고산자로 212 (행당동, 행당전화국)",37.55911238,127.0342683
285,2호선 상왕십리역 지하1층,"서울특별시 성동구 왕십리로 지하 374 (하왕십리동, 상왕십리역)",37.56462665,127.0287846
286,대림1차아파트(지하1층),"서울특별시 성동구 독서당로62길 43 (응봉동, 대림아파트)",37.55216146,127.0339887
287,소월아트홀 지하1층,"서울특별시 성동구 왕십리로 281, 소월아트홀 (행당동)",37.55934545,127.036129
288,"대림2차아파트 (관리사무소, 지하 1층)","서울특별시 성동구 독서당로 431 (응봉동, 대림2차아파트)",37.55390542,127.0334424
289,현대아파트(지하 1층),"서울특별시 성동구 독서당로 377 (응봉동, 금호현대아파트)",37.55000154,127.0303982
290,뚝섬현대아파트 지하주차장(지하1층),"서울특별시 성동구 상원길 42 (성수동1가, 뚝섬현대아파트)",37.54774589,127.0485744
291,3호선 금호역 지하 1~2층,"서울특별시 성동구 동호로 지하 104 (금호동4가, 금호역)",37.54853091,127.0156879
293,한국전력공사 성동지사 지하주차장(지하1층),"서울특별시 성동구 마장로27길 13, 지하1층 (마장동)",37.56733433,127.0339338
294,벽산아파트 지하주차장 1~2층,"서울특별시 성동구 무학로 50 (하왕십리동, 벽산아파트)",37.56861739,127.0304187
295,5호선 마장역(지하 1~3층),"서울특별시 성동구 마장로 지하 296 (마장동, 마장역)",37.56583625,127.0425248
296,5호선 왕십리역 지하1층,"서울특별시 성동구 왕십리로 지하 300 (행당동, 왕십리역)",37.56118598,127.0364893
297,신동아아파트(지하 1층),"서울특별시 성동구 독서당로 375 (응봉동, 신동아아파트)",37.54992327,127.0299163
298,서울숲삼부아파트 지하1층,"서울특별시 성동구 왕십리로 280(행당동, 서울숲삼부아파트)",37.55949001,127.0371623
299,삼성아파트 지하주차장(지하1층),"서울특별시 성동구 마장로 271, 지하1층 (마장동, 삼성아파트)",37.56592515,127.0400566
300,"5호선 신금호역 지하 1,2,8층","서울특별시 성동구 금호로 지하 154 (금호동2가, 신금호역)",37.55456423,127.0201339
301,쌍용아파트 지하주차장(지하1층),"서울특별시 성동구 상원길 63 (성수동1가, 쌍용아파트)",37.54961087,127.0478662
302,금호아파트 (지하1층),"서울특별시 성동구 연무장길 31-1 (성수동2가, 금호아파트)",37.54323113,127.0529871
303,르노삼성AS센터 (지하1층~지하3층),"서울특별시 성동구 광나루로 270 (성수동2가, 르노삼성자동차 성수사업소)",37.5482688,127.0595442
304,성수2차대우아파트 지하주차장(지하1층),"서울특별시 성동구 상원6길 16 (성수동1가, 성수2차대우아파트)",37.54891821,127.0499325
305,성수동동아그린아파트 지하주차장(지하1층),"서울특별시 성동구 상원길 76 (성수동1가, 성수동동아그린아파트)",37.55076841,127.047646
306,옥수현대아파트단지 지하1층,"서울특별시 성동구 독서당로40길 25 (옥수동, 옥수현대아파트)",37.5428763,127.0172475
307,성동세무서(지하1층~ 2층 주차장),"서울특별시 성동구 광나루로 297 (송정동, 성동세무서)",37.548423,127.0628053
308,건영아파트(지하 1~3층 주차장),"서울특별시 성동구 동일로 263 (송정동, 송정동건영아파트)",37.55532382,127.0708739
309,옥수하이츠아파트(지하1~2층),"서울특별시 성동구 한림말길 50 (옥수동, 옥수하이츠아파트)",37.54109624,127.0165511
310,금호초등학교 지하1층,"서울특별시 성동구 무수막길 69 (금호동2가, 금호초등학교)",37.55204746,127.0206723
316,대림강변타운아파트(지하 1층),"서울특별시 성동구 고산자로 160 (응봉동, 대림강변타운)",37.55444813,127.0346918
317,리버그린동아아파트(지하 1층),"서울특별시 성동구 고산자로4길 34 (응봉동, 응봉동리버그린동아아파트)",37.55347625,127.0376372
320,서울교통공사(인재개발원) 지하주차장 (지하1층),"서울특별시 성동구 천호대로78길 15-48 (용답동, 서울시투자기관교육복지센터)",37.5619446,127.0569661
322,중앙하이츠아파트단지 지하주차장 (지하1층),"서울특별시 성동구 용답중앙27길 8 (용답동, 중앙하이츠아파트)",37.56320701,127.054991
323,서울교통공사 본사 지하주차장 (지하1~3층),서울특별시 성동구 천호대로 346 (용답동),37.56283404,127.0573013
324,한신무학아파트 지하1층,"서울특별시 성동구 왕십리로31나길 18 (하왕십리동, 한신무학아파트)",37.56305182,127.0282293
325,왕십리풍림아이원 지하1층,"서울특별시 성동구 난계로 84(하왕십리동, 왕십리풍림아이원)",37.55938423,127.0240057
326,성동삼성쉐르빌 지하주차장 1~4층,"서울특별시 성동구 무학로6길 50 (도선동, 성동삼성쉐르빌)",37.56444419,127.0354234
327,신한넥스텔 지하주차장 1~3층,"서울특별시 성동구 고산자로 269 (도선동, 신한넥스텔)",37.5637188,127.035967
328,왕십리역이스타빌 지하1층~지하5층,"서울특별시 성동구 왕십리로 309 (행당동, 왕십리역이스타빌)",37.56144731,127.0346791
329,무학빌딩 지하1층~지하2층,"서울특별시 성동구 고산자로 202, 무학빌딩 (행당동)",37.55822049,127.0342475
330,성동구청 지하1층~지하2층,"서울특별시 성동구 고산자로 270 (행당동, 성동구청)",37.56361074,127.0366126
331,5호선 행당역(지하1층~3층),"서울특별시 성동구 행당로 지하89, 행당역 지하1~3층 (행당동)",37.55720028,127.0290727
332,행당한진타운종합상가(지하1층~지하6층),"서울특별시 성동구 행당로 84, 행당 한진타운 종합상가지하주차장지하3층 (행당동)",37.55663728,127.0286406
333,행당대림아파트(지하1층 주차장),"서울특별시 성동구 행당로 79, 지하주차장 지하1층 (행당동, 행당동 대림아파트)",37.55676787,127.0280366
334,행현초등학교(지하1층),"서울특별시 성동구 행당로 95, 행현초등학교 지하1층 (행당동)",37.55758056,127.0295291
335,행당한진타운아파트(지하1층 주차장),"서울특별시 성동구 행당로 82, 지하주차장 지하1층 (행당동, 행당 한진타운)",37.55662679,127.0282773
336,행당한진타운임대아파트(지하1층 주차장),"서울특별시 성동구 행당로 82, 임대동 지하주차장 지하1층 (행당동, 행당 한진타운)",37.55662679,127.0282773
337,금호벽산아파트(지하1층~지하2층 주차장),"서울특별시 성동구 금호로 100 (금호동1가, 벽산아파트)",37.5522946,127.0256762
338,금호삼성래미안아파트(지하1층 주차장),"서울특별시 성동구 독서당로 343 (금호동1가, 금호삼성래미안아파트)",37.5482644,127.0271013
339,옥수삼성아파트 지하1~2층,"서울특별시 성동구 독서당로 218(옥수동, 옥수삼성아파트)",37.5435525,127.0151316
340,옥수극동아파트 지하1층,"서울특별시 성동구 독서당로 191 (옥수동, 옥수동극동아파트)",37.54291835,127.0122915
341,옥수극동그린아파트 지하1층,"서울특별시 성동구 독서당로 175 (옥수동, 극동그린아파트)",37.54176543,127.0109678
342,마장에스에이치빌 지하주차장(지하1층),"서울특별시 성동구 마조로15가길 23, 지하1층 (마장동, 마장 에스에이치빌)",37.56474563,127.0409972
343,강변건영아파트 지하 1층,"서울특별시 성동구 왕십리로 36 (성수동1가, 강변건영아파트)",37.54075014,127.0441314
344,행당대림아파트 리빙프라자(지하1층~지하3층),"서울특별시 성동구 행당로 87, 리빙프라자 지하주차장1~2층 (행당동)",37.55720698,127.0286802
345,금호동대우아파트 지하 1~2층 주차장,"서울특별시 성동구 독서당로 272, 지하1~2층 (금호동4가, 금호동 대우아파트)",37.54653224,127.0200489
346,금호동롯데아파트 지하1~2층 주차장,"서울특별시 성동구 동호로 84, 지하1~2층 (금호동4가, 롯데아파트)",37.54685169,127.0166622
347,강변현대아파트(지하1~2층),"서울특별시 성동구 둘레11길 1 (성수동2가, 강변현대아파트)",37.53622732,127.0513112
348,강변청구아파트(지하2층),"서울특별시 성동구 둘레15길 7(성수동2가, 청구강변아파트)",37.53544337,127.0554254
350,현대아이파크아파트 (지하1층~2층),"서울특별시 성동구 성수이로 137 (성수동2가, 성수동아이파크)",37.54727673,127.0577319
352,중앙하이츠빌 지하주차장(지하1층),"서울특별시 성동구 상원길 47 (성수동1가, 중앙하이츠빌)",37.54823858,127.0482257
353,서울숲대림아파트 지하 1층,"서울특별시 성동구 뚝섬로 311(성수동1가, 서울숲 대림)",37.54149863,127.0456892
354,성수동 동양아파트 지하 1층,"서울특별시 성동구 둘레길 21 (성수동1가, 성수동동양아파트)",37.53747427,127.0461393
355,서울숲현대아이파크(지하1 ~ 2층 주차장),"서울특별시 성동구 동일로 237 (송정동, 서울숲아이파크)",37.55296587,127.0698539
356,YM프라젠아파트 지하주차장 (지하1층),"서울특별시 성동구 자동차시장1길 14 (용답동, 와이엠프라젠아파트)",37.56130276,127.0589786
357,서울응봉초등학교 (지하1층),"서울특별시 성동구 독서당로62길 28 (응봉동, 응봉초등학교)",37.55074361,127.0332716
358,두산아파트 지하1층,"서울특별시 성동구 동호로 100 (금호동3가, 두산아파트)",37.54870789,127.0166886
359,금호1차 푸르지오아파트 지하1~3층,"서울특별시 성동구 금호산길 8 (금호동3가, 금호1차푸르지오아파트)",37.54911925,127.0197574
360,금호동한신휴플러스아파트 지하1~2층,"서울특별시 성동구 금호산길 27 (금호동3가, 금호동한신휴플러스아파트)",37.55063074,127.0188983
361,용답초등학교 지하1층,"서울특별시 성동구 용답25길 1 (용답동, 용답초등학교)",37.56109817,127.0542267
362,신영지웰아파트 지하1층,"서울특별시 성동구 무학봉길 76 (하왕십리동, 하왕십리 신영지웰)",37.56104782,127.0310513
363,비트플렉스 지하1층,서울특별시 성동구 왕십리광장로 17 (행당동),37.56128506,127.0379027
364,송원초등학교 지하주차장(지하 1층),"서울특별시 성동구 동일로43길 9 (송정동, 송원초등학교)",37.55414334,127.0697576
368,청계대주파크빌 지하주차장 1층,"서울특별시 성동구 무학로12길 11 (홍익동, 청계대주파크빌)",37.56735324,127.0314455
369,노블리안 지하주차장 1~2층,"서울특별시 성동구 왕십리로 390 (상왕십리동, 노블리안)",37.565161,127.0271239
370,왕십리모노퍼스주상복합 지하주차장 1~2층,"서울특별시 성동구 청계천로 474 (하왕십리동, 왕십리모노퍼스주상복합)",37.56956987,127.02962
371,금호브라운스톤아파트1차 지하1~3층,"서울특별시 성동구 매봉길 24, 지하1~3층 (금호동4가, 브라운스톤금호)",37.54607537,127.0156323
372,서울숲푸르지오1차 지하1~3층 주차장,"서울특별시 성동구 금호로 15, 지하1~3층 (금호동4가, 서울숲푸르지오아파트)",37.54490047,127.0241571
373,왕십리도선동 공공복합청사 지하주차장 1층,"서울특별시 성동구 마장로 141, 왕십리도선동 공공복합청사 (상왕십리동)",37.56777083,127.0254635
374,텐즈힐1단지 지하주차장 1~3층,"서울특별시 성동구 무학로 33 (하왕십리동, 텐즈힐)",37.56723786,127.0298964
375,텐즈힐2단지 지하주차장 1~3층,"서울특별시 성동구 마장로 137 (상왕십리동, 텐즈힐)",37.56783807,127.0251595
376,성수롯데캐슬파크 (지하 1~2층),"서울특별시 성동구 성수일로8길 47(성수동2가, 성수동 롯데캐슬파크)",37.54539767,127.0556898
377,답십리역 지하 1~3층,"서울특별시 성동구 천호대로 지하300, 답십리역 (용답동)",37.56594055,127.0538653
378,한강한신아파트(지하2~3층),"서울특별시 성동구 성수이로 3(성수동2가, 한강한신아파트)",37.53561837,127.0533415
379,성수두산위브아파트(지하1층),"서울특별시 성동구 뚝섬로 434(성수동2가, 성수동 두산위브)",37.53764651,127.0582217
380,한진타운아파트 지하 1층,"서울특별시 성동구 뚝섬로 310(성수동1가, 한진타운아파트)",37.54145542,127.0442711
381,와이하우스 지하주차장 (지하1~3층),서울특별시 성동구 자동차시장3길 93 (용답동),37.55861593,127.0671334
382,KCC스위첸아파트 지하1층~3층,"서울특별시 성동구 무학봉길 35 (하왕십리동, 왕십리KCC스위첸)",37.56037647,127.0266829
383,서울숲한신더휴아파트 지하2층~지하4층,"서울특별시 성동구 고산자로 164 (행당동, 서울숲한신더휴)",37.55491588,127.0350074
384,마장동현대아파트 지하주차장(지하1~2층),"서울특별시 성동구 살곶이길 50, 지하1~2층 (마장동, 마장동 현대아파트)",37.57019438,127.0428209
385,성수문화복지회관 지하1~2층,"서울특별시 성동구 뚝섬로1길 43, 성수문화복지회관 (성수동1가)",37.54525214,127.0470765
386,서울숲 ITCT 지식산업센터 지하 1~5층,"서울특별시 성동구 성수일로 10, 서울숲 ITCT 지식산업센터 (성수동1가)",37.54133612,127.0487402
387,FORHU 지하 1~5층,"서울특별시 성동구 왕십리로 58, FORHU (성수동1가)",37.54273703,127.0447124
388,행당브라운스톤(지하1층 주차장),"서울특별시 성동구 행당로 99 (행당동, 행당브라운스톤)",37.55833666,127.0296438
389,행당두산위브(지하1층 주창장),"서울특별시 성동구 행당로8길 8 (행당동, 행당두산위브)",37.55731128,127.0306744
390,서울숲행당푸르지오(지하1층~지하3층),"서울특별시 성동구 고산자로 177 (행당동, 서울숲행당푸르지오아파트)",37.55601275,127.0336416
391,하왕극동미라주아파트 지하1층~3층,"서울특별시 성동구 난계로 73 (하왕십리동, 극동미라주 아파트)",37.55865871,127.0235575
392,금호베스트빌 지하 1층,"서울특별시 성동구 난계로 114-31 (하왕십리동, 금호 베스트빌)",37.56175506,127.0252609
393,"서울숲역 수인분당선 지하1층,4층","서울특별시 성동구 왕십리로 지하77, 서울숲역 (성수동1가)",37.54454565,127.0448533
394,성수SKV1 지식산업센터(지하1층~ 5층),"서울특별시 성동구 연무장5가길 25, 성수역 SK V1 Tower (성수동2가)",37.54340161,127.0556548
395,성락성결교회(지하1층 ~ 4층),"서울특별시 성동구 성수일로10길 33, 기독교대한성결교회 (성수동2가)",37.54637076,127.0536541
396,센트라스 지하주차장 1~6층,"서울특별시 성동구 왕십리로 410 (하왕십리동, 센트라스)",37.56527791,127.0247811
397,왕십리자이아파트 지하1층,"서울특별시 성동구 난계로 100 (하왕십리동, 왕십리자이)",37.56077686,127.0239828
398,한양대학교 대운동장 주차장 지하1층,"서울특별시 성동구 왕십리로 222, 한양대학교 (사근동)",37.5574125,127.0429131
399,한양대학교 대운동장 주차장 지하2층,"서울특별시 성동구 왕십리로 222, 한양대학교 (사근동)",37.5574125,127.0429131
400,한양대학교 한양종합기술연구원 주차장 지하1층,"서울특별시 성동구 왕십리로 222, 한양대학교 (사근동)",37.5574125,127.0429131
401,한양대학교 한양종합기술연구원 주차장 지하 2층,"서울특별시 성동구 왕십리로 222, 한양대학교 (사근동)",37.5574125,127.0429131
402,서울숲AK밸리 지식산업센터 지하주차장(지하2~5층),"서울특별시 성동구 성수일로 99, 서울숲AK밸리 지식산업센터 (성수동1가)",37.54945203,127.0512789
403,지웰홈스 왕십리 지하1층~지하2층,"서울특별시 성동구 고산자로14길 26 (행당동, 지웰홈스 왕십리)",37.56315771,127.0374721
404,서울숲 한라시그마밸리(지하1~5층),"서울특별시 성동구 성수이로 51, 서울숲한라시그마벨리 (성수동2가)",37.5399013,127.0550467
405,서울숲 한라시그마밸리 2차,"서울특별시 성동구 성수이로7길 7, 서울숲 한라시그마밸리Ⅱ (성수동2가)",37.53991698,127.0546193
406,서울숲 코오롱디지털타워1차(지하1~3층),"서울특별시 성동구 성수일로4길 25, 서울숲코오롱디지털타워 (성수동2가)",37.54215531,127.0516538
407,래미안 옥수리버젠아파트(지하1~2층),"서울특별시 성동구 매봉길 15 (옥수동, 래미안 옥수 리버젠)",37.54530801,127.0152948
408,현대테라스타워 지식산업센터 지하 1~4층,"서울특별시 성동구 연무장5가길 7, 성수역 현대테라스타워 (성수동2가)",37.54408631,127.0536715
409,성수동 우림 이비즈센터 지식산업센터 지하 1~3층,"서울특별시 성동구 광나루로6길 35, 성수동 우림 이비즈센터 (성수동2가)",37.54681397,127.0632591
410,성수AK밸리(지하3~4층),"서울특별시 성동구 연무장길 76, 성수 AK 밸리 (성수동2가)",37.54150595,127.0575266
411,메타모르포 지하주차장(지하1~3층),"서울특별시 성동구 성수일로 89, Metamorpho(지식산업센터) (성수동1가)",37.5484179,127.050757
412,성수선명스퀘어 지하주차장(지하1층),서울특별시 성동구 성수일로 111 (성수동1가),37.55045285,127.051583
413,서울숲코오롱디지털타워3차 지하주차장(지하1~3층),"서울특별시 성동구 아차산로 49, 서울숲 코오롱디지털타워 Ⅲ (성수동1가)",37.54678765,127.0500373
414,SK테크노빌딩 지하주차장(지하2~3층),"서울특별시 성동구 성수일로 55, SK테크노빌딩 (성수동1가)",37.54546574,127.0495355
415,동진아이티타워 지하주차장(지하1~5층),"서울특별시 성동구 상원12길 30, 동진아이티타워 (성수동1가)",37.55004004,127.0506634
416,서울숲IT캐슬 지하주차장(지하2~5층),"서울특별시 성동구 광나루로 130, 서울숲IT캐슬 (성수동1가)",37.55097881,127.0447207
417,서울숲SK V1센터 지하 1~4층,"서울특별시 성동구 성수일로8길 5, 서울숲 SK V1 TOWER (성수동2가)",37.54675587,127.0512611
418,세종대학교 군자관 지하1층,"서울특별시 광진구 능동로 209 (군자동, 세종대학교)",37.54910625,127.0750473
419,자양초등학교 강당 지하 1층,"서울특별시 광진구 아차산로44길 26, 서울자양초등학교 (자양동)",37.53650151,127.0796334
420,동국대사대부여중 지하1층,서울특별시 광진구 광나루로36길 47 (구의동),37.54278117,127.086161
421,용마초등학교 지하1층,"서울특별시 광진구 천호대로113길 10 (중곡동, 서울용마초등학교)",37.55756311,127.0832977
422,어린이회관 지하 1층,"서울특별시 광진구 광나루로 441 (능동, 육영재단어린이회관)",37.54601452,127.0786056
423,광장동주민센터 지하 1층,"서울특별시 광진구 광장로 52 (광장동, 광장동주민센터)",37.54684012,127.1030232
424,자양2동주민센터 지하주차장 1층,"서울특별시 광진구 자양로3가길 26 (자양동, 자양2동주민센터)",37.52882135,127.0845062
425,군자지하보도 지하1층,서울특별시 광진구 동일로 323 (중곡동),37.56007376,127.0738299
426,현대하이츠빌라 지하주차장 1층,"서울특별시 광진구 영화사로9길 24 (중곡동, 현대하이츠빌라)",37.55607784,127.0930422
427,광진경찰서 주차장 지하 1층~3층,"서울특별시 광진구 자양로 167 (구의동, 광진경찰서)",37.54267168,127.0840584
428,국립정신건강센터 주차장 지하1~2층,"서울특별시 광진구 용마산로 127 (중곡동, 국립정신건강센터)",37.56501027,127.0861721
429,대순진리회 지하1층,"서울특별시 광진구 용마산로 74 (중곡동, 대순종단천안방면중앙연락소)",37.56027679,127.0877262
430,자양3동주민센터 지하1층,"서울특별시 광진구 뚝섬로 568, 자양제3동주민센터  지하1층 (자양동)",37.53388372,127.0729238
431,자양4동주민센터 지하주차장 1층,"서울특별시 광진구 뚝섬로26길 58 (자양동, 자양제4동주민센터)",37.53416881,127.0662201
432,크레스코 오피스텔 지하주차장 3층~6층,서울특별시 광진구 아차산로78길 44 (광장동),37.55106437,127.1097079
433,리버힐 오피스텔 지하 1~2층,"서울특별시 광진구 아차산로78길 110 (광장동, 리버힐오피스텔)",37.54995159,127.1102837
434,광장현대3단지아파트 지하주차장 1층,"서울특별시 광진구 아차산로70길 62 (광장동, 광장현대3단지아파트)",37.54074076,127.0999132
435,강변우성아파트 지하주차장 1층,"서울특별시 광진구 구의강변로 42 (구의동, 구의동강변우성아파트)",37.53457605,127.0921849
436,동서울터미널 지하주차장 2~3층,"서울특별시 광진구 강변역로 50 (구의동, 동서울터미널빌딩)",37.53470051,127.0933305
437,광나루현대아파트 지하주차장 1~2층,"서울특별시 광진구 아차산로76길 31 (광장동, 광나루현대아파트)",37.5468088,127.1077774
438,건국대 상허기념도서관 지하 2층,서울특별시 광진구 능동로 120 (화양동),37.54160909,127.07178
439,리젠트오피스텔 지하주차장 1~4층,"서울특별시 광진구 강변역로4길 68 (구의동, 리젠트오피스텔)",37.53278528,127.0924219
440,강변현대아파트 지하주차장 지하1~2층,"서울특별시 광진구 자양로3가길 43 (자양동, 현대강변아파트)",37.52829718,127.0853197
441,한강극동아파트 지하주차장 1층,"서울특별시 광진구 능동로3길 53 (자양동, 극동아파트)",37.53408966,127.064458
442,구의3동주민센터 지하주차장 1~2층,"서울특별시 광진구 강변역로 17 (구의동, 구의제3동 복합청사)",37.53795041,127.0919849
443,JS빌딩 지하1층,"서울특별시 광진구 천호대로 605 (중곡동, JS빌딩)",37.55532029,127.0849742
444,대원외고 지하주차장,"서울특별시 광진구 용마산로22길 26 (중곡동, 대원학원)",37.56364852,127.0886033
445,인성하이텍 빌딩 지하주차장 1~2층,"서울특별시 광진구 아차산로 627 (광장동, 인성하이텍빌딩)",37.54879527,127.1074007
448,한강현대아파트 지하주차장 1층,"서울특별시 광진구 능동로 19 (자양동, 한강현대아파트)",37.53321153,127.0672669
449,한강우성아파트 지하주차장 1층,"서울특별시 광진구 능동로1길 15 (자양동, 한강우성아파트)",37.53268993,127.0661833
450,신성그랜드타워 지하주차장 1~2층,"서울특별시 광진구 면목로 127 (중곡동, 신성그랜드타워)",37.56498488,127.0806215
451,삼민아파트 지하1층,"서울특별시 광진구 긴고랑로15길 32 (중곡동, 삼민아파트)",37.56331303,127.0837887
452,현대6단지아파트 지하주차장 1층,"서울특별시 광진구 구의강변로 94 (구의동, 현대아파트)",37.53883624,127.0941037
453,광장현대8단지아파트 지하주차장 1~2층,"서울특별시 광진구 아차산로 522 (광장동, 현대아파트)",37.54214882,127.0994394
454,군자역 지하 1~3층,서울특별시 광진구 천호대로 지하 550,37.55686262,127.0791205
455,아차산역(5호선) 대합실 지하 1~2층,"서울특별시 광진구 천호대로 지하657, 5호선 아차산역 지하 (능동)",37.55227751,127.0895801
456,중곡역 지하1~3층,"서울특별시 광진구 능동로 지하 417 (중곡동, 7호선 중곡역)",37.56626397,127.084328
457,어린이대공원역 지하 1~3층,"서울특별시 광진구 능동로 지하 210 (능동, 어린이대공원)",37.54889376,127.075416
458,광나루역 지하 1~2층,"서울특별시 광진구 아차산로 지하 571 (광장동, 광나루역5호선)",37.54472946,127.1037058
459,동서울우편집중국 지하주차장 2층,"서울특별시 광진구 자양로 76 (자양동, 동서울우편집중국)",37.53464007,127.0845988
460,자양현대2차아파트 지하주차장 1~2층,"서울특별시 광진구 뚝섬로34길 9, 지하주차장 1층 (자양동, 자양2차현대아파트)",37.53434011,127.0700271
461,일성파크아파트 지하주차장 지하1층,"서울특별시 광진구 군자로12길 46 (군자동, 일성파크아파트)",37.55214531,127.0726183
462,한라아파트 지하주차장 1~2층,"서울특별시 광진구 뚝섬로33길 20, 지하주차장 1층 (자양동, 한라아파트)",37.5358821,127.0697879
463,현대7단지아파트 지하주차장 1~2층,"서울특별시 광진구 구의강변로3가길 39 (구의동, 구의7단지조합현대아파트)",37.53712853,127.0911831
464,현대프라임아파트 지하주차장 1층,"서울특별시 광진구 광나루로56길 29 (구의동, 현대프라임아파트)",37.53804212,127.0972434
465,자양우성7차아파트 지하주차장 1~2층,"서울특별시 광진구 아차산로36길 39, 지하주차장 1층 (자양동, 자양7차우성아파트)",37.53690968,127.0739469
466,한강성원아파트 지하주차장 1층,"서울특별시 광진구 능동로3길 17 (자양동, 성원아파트)",37.5332024,127.0662789
467,건대입구역 7호선 지하2층,"서울특별시 광진구 능동로 지하 110 (화양동, 7호선 건대입구역)",37.54077772,127.0711119
468,테크노마트 지하주차장 1~5층,"서울특별시 광진구 광나루로56길 85 (구의동, 테크노마트)",37.53614095,127.0952935
469,로얄동아아파트 지하주차장 지하1~2층,"서울특별시 광진구 뚝섬로52마길 56 (자양동, 로얄동아아파트)",37.52865627,127.0814028
470,이튼타워리버5차아파트 지하주차장 1~2층,"서울특별시 광진구 능동로4길 40, 지하주차장 1층 (자양동, 이튼타워리버5차)",37.53256793,127.0693444
471,에스케이아파트 지하주차장 1층,"서울특별시 광진구 용마산로 174 (중곡동, 에스케이아파트)",37.56931789,127.0866415
472,한국중앙교회 지하1층 식당,서울특별시 광진구 능동로 447 (중곡동),37.56862616,127.0851001
473,중곡문화체육센터 주차장 지하1층,"서울특별시 광진구 능동로 433 (중곡동, 중곡문화체육센터)",37.56775296,127.0850327
474,중곡1동 주민센터 지하1층,"서울특별시 광진구 긴고랑로12길 49 (중곡동, 중곡제1동주민센터)",37.56061082,127.0798788
475,중곡2동 주민센터 지하1층,"서울특별시 광진구 능동로 346 (중곡동, 중곡제2동주민센터)",37.56026908,127.0813567
476,중곡3동 주민센터 지하1층,"서울특별시 광진구 동일로76가길 28 (중곡동, 중곡제3동주민센터)",37.56879169,127.0800876
477,중곡4동 주민센터 지하 1층,"서울특별시 광진구 긴고랑로 131 (중곡동, 중곡제4동주민센터)",37.55903882,127.0894694
478,능동 주민센터 지하 1층,"서울특별시 광진구 천호대로112길 55, 능동주민센터 (능동)",37.55384169,127.080438
479,자양1동 주민센터 지하주차장 1층,"서울특별시 광진구 자양로13길 37 (자양동, 자양제1동주민센터)",37.53457693,127.0823088
480,화양동 주민센터 지하 2층,"서울특별시 광진구 능동로17길 39 (화양동, 화양동주민센터)",37.54668424,127.0713537
481,범천타워 지하 1~4층,서울특별시 광진구 천호대로 572 (능동),37.55613874,127.081323
482,군자메가박스 지하주차장 지하1층,서울특별시 광진구 능동로 289 (군자동),37.55574963,127.0784197
483,자양5차현대아파트 지하주차장 지하 1~3층,"서울특별시 광진구 뚝섬로54길 74 (자양동, 자양5차현대아파트)",37.52842931,127.0794394
484,건국대 새천년관 지하 2층,서울특별시 광진구 능동로 120 (화양동),37.54160909,127.07178
485,건국대 산학협동관 지하 1층,서울특별시 광진구 능동로 120 (화양동),37.54160909,127.07178
486,건국대 상허연구관 지하 1층,서울특별시 광진구 능동로 120 (화양동),37.54160909,127.07178
487,새한아파트 주차장 지하1층,"서울특별시 광진구 자양로26길 71 (구의동, 구의동새한아파트)",37.5407772,127.0878699
488,케이티앤지성동지사 주차장 지하1층,"서울특별시 광진구 동일로 462 (중곡동, 케이티앤지성동지점)",37.57149366,127.0802672
489,"래미안프리미어팰리스아파트 102동 지하주차장 1,2층",서울특별시 광진구 아차산로 345 (자양동),37.53742025,127.0815523
490,동국대사대부여고 지하1층,서울특별시 광진구 광나루로36길 47 (구의동),37.54278117,127.086161
491,래미안파크스위트아파트 전체 동 지하주차장 지하 1~2층,"서울특별시 광진구 광나루로 545 (구의동, 래미안파크스위트)",37.54546564,127.091219
492,구의1동 주민센터 주차장 지하1층,"서울특별시 광진구 광나루로36길 56 (구의동, 구의제1동주민센터)",37.54238672,127.0857642
493,자양대동아파트  지하주차장 1층,"서울특별시 광진구 뚝섬로31길 20 (자양동, 대동아파트)",37.53642102,127.0679196
494,한강아남아파트 지하주차장 1층,"서울특별시 광진구 능동로3다길 13 (자양동, 한강아남아파트)",37.53344145,127.0648424
495,한영해시안아파트 지하주차장 1층,"서울특별시 광진구 동일로18길 10 (자양동, 한영해시안아파트)",37.53989354,127.0634322
496,세종대학교 대양AI센터 지하주차장 지하3~5층,"서울특별시 광진구 능동로 209 (군자동, 세종대학교)",37.54910625,127.0750473
497,군자동 공영주차장 지하1층,서울특별시 광진구 능동로27길 12 (군자동),37.55387442,127.0768265
498,군자동 복합청사 지하주차장 지하1~2층,"서울특별시 광진구 면목로 13, 군자동 복합청사 (군자동)",37.55547587,127.0754749
499,"경희대학교 청운관 지하 1,2층",서울특별시 동대문구 경희대로 26 (회기동),37.59388229,127.0527144
500,경동시장신관 지하주차장 1층,서울특별시 동대문구 고산자로36길 3 (제기동),37.57893198,127.0387334
501,"경희의료원 지하 1,2층","서울특별시 동대문구 경희대로 23 (회기동, 경희의료원)",37.59374826,127.0525695
502,답십리 우성그린아파트 지하주차장 지하 1층,"서울특별시 동대문구 답십리로59길 33 (답십리동, 우성그린아파트)",37.57428597,127.0664386
503,"동대문구청 지하주차장 1층,2층",서울특별시 동대문구 천호대로 145 (용두동),37.5743694,127.0397079
504,휘경미소지움아파트 지하주차장 지하 1층,"서울특별시 동대문구 망우로 105 (휘경동, 휘경미소지움아파트)",37.59104879,127.0648444
505,"경희의료원 주차빌딩 지하주차장 지하1,2층",서울특별시 동대문구 경희대로1나길 56-3 (회기동),37.5935201,127.0503221
506,답십리 두산아파트 지하주차장 지하 1층,"서울특별시 동대문구 답십리로56길 21 (답십리동, 두산아파트)",37.57187968,127.0593986
507,"답십리 청솔우성아파트 지하주차장 지하 1,2층","서울특별시 동대문구 전농로10길 20 (답십리동, 답십리청솔우성아파트)",37.57490798,127.0587345
508,"휘경동 동양아파트 지하주차장 지하1,2층","서울특별시 동대문구 망우로 135 (휘경동, 휘경동동양아파트)",37.59208435,127.067779
509,"휘경롯데낙천대아파트 지하주차장 지하1,2층","서울특별시 동대문구 외대역동로1길 24 (휘경동, 휘경동롯데낙천대아파트)",37.59220826,127.0650249
510,"전농SK아파트 지하주차장 지하 1,2층","서울특별시 동대문구 사가정로 148 (전농동, 전농SK아파트)",37.57778786,127.0612366
511,"서울시립대 조형관 지하 1, 2층","서울특별시 동대문구 서울시립대로 163 (전농동, 서울시립대학교)",37.58346414,127.0550542
512,전농 우성아파트 지하주차장 지하 1층,"서울특별시 동대문구 사가정로 190 (전농동, 전농우성아파트)",37.57833265,127.0660469
513,"서울삼육병원 추모관 지하주차장 1층, 2층",서울특별시 동대문구 망우로 82 (휘경동),37.58986392,127.0625253
514,"휘경현대아파트 지하주차장 지하1,2층","서울특별시 동대문구 서울시립대로29길 62 (휘경동, 휘경동현대아파트)",37.5862734,127.0551524
515,"과학기술원  경영관대학 지하 1층, 2층","서울특별시 동대문구 회기로 85 (청량리동, 한국과학기술원)",37.59180041,127.0461283
516,"서울성심병원 지하 1,2층","서울특별시 동대문구 왕산로 259 (청량리동, 서울성심병원)",37.58415558,127.0499694
517,"5호선  답십리역 지하 1층, 2층","서울특별시 동대문구 천호대로 295 (답십리동, 우창프라자아파트)",37.56642293,127.0537361
518,"답십리 동아아파트 지하주차장 지하 1,2층","서울특별시 동대문구 한천로11길 10-1 (답십리동, 동아아파트)",37.56820213,127.0613604
519,"1호선 청량리역 지하 1층, 2층","서울특별시 동대문구 왕산로 지하 205 (전농동, 청량리역)",37.58064098,127.0457875
520,"전농동 동아아파트 지하주차장 지하 1,2층",서울특별시 동대문구 서울시립대로 31 (전농동),37.57455852,127.0461026
521,"1호선 제기동역 지하 1층, 2층","서울특별시 동대문구 왕산로 지하 93 (제기동, 제기동역)",37.57826558,127.0336912
522,"1호선 신설동역 지하 1층, 2층","서울특별시 동대문구 왕산로 지하 1 (신설동, 신설동역)",37.57589721,127.0236952
523,"2호선 신설동역 지하 1층, 2층","서울특별시 동대문구 왕산로 지하 1 (신설동, 신설동역)",37.57589721,127.0236952
524,"이문푸르지오아파트 지하주차장 지하 1,2층",서울특별시 동대문구 한천로58길 139 (이문동),37.6025424,127.0704368
525,"이문e편한세상아파트 지하주차장 지하1,2층","서울특별시 동대문구 한천로63길 10 (이문동, 이문e편한세상아파트)",37.60436481,127.0665343
526,"이문쌍용아파트 지하주차장 1, 2, 3층","서울특별시 동대문구 한천로58길 47 (이문동, 쌍용아파트)",37.59920068,127.0690511
527,"이문현대아파트 지하주차장 지하 1,2층","서울특별시 동대문구 한천로58길 107 (이문동, 현대아파트)",37.60133971,127.0708026
528,"장안 한신아파트 지하주차장 지하1,2층","서울특별시 동대문구 사가정로 245-3 (장안동, 한신아파트)",37.57946439,127.0722958
529,전농 삼성아파트 지하주차장 1층,"서울특별시 동대문구 전농로 192 (전농동, 전농동삼성아파트)",37.581501,127.0552298
530,래미안 장안아파트 지하주차장 1층,"서울특별시 동대문구 장한로14길 81 (장안동, 래미안장안아파트)",37.56507222,127.0724039
531,"장안현대홈타운 지하주차장 지하1,2층",서울특별시 동대문구 장안벚꽃로 107 (장안동),37.56972668,127.0757423
532,전농 씨티빌라트 지하주차장 1층,"서울특별시 동대문구 전농로 222 (전농동, 씨티빌라트)",37.58390573,127.0534558
533,"동부센트레빌103동 지하주차장 지하1,2,3층","서울특별시 동대문구 홍릉로10길 48 (청량리동, 홍릉동부아파트)",37.5862955,127.045565
534,"홍릉동부제2임대아파트 지하주차장 1,2,3,4층","서울특별시 동대문구 제기로26길 26 (청량리동, 동부센트레빌아파트)",37.5856382,127.0452853
535,이문 삼익아파트 지하주차장 1층,"서울특별시 동대문구 한천로55길 9 (이문동, 이문동삼익아파트)",37.5965879,127.0671323
536,"이문 중앙하이츠빌 지하주차장 1,2층","서울특별시 동대문구 외대역동로 101 (이문동, 중앙하이츠빌)",37.59678478,127.0651515
537,"청량리 한신아파트 지하주차장 지하1,2,3층","서울특별시 동대문구 제기로 131 (청량리동, 한신아파트)",37.58727003,127.0482637
538,답십리 두산임대아파트 지하주차장 1층,"서울특별시 동대문구 답십리로56길 21-1 (답십리동, 두산아파트)",37.57020177,127.0593807
539,"5호선 장한평역 지하 1층, 2층","서울특별시 동대문구 천호대로 지하 405 (장안동, 장한평역)",37.5616537,127.0639718
540,"제기 이수브라운아파트 지하주차장 지하1,2층","서울특별시 동대문구 왕산로23길 89 (제기동, 이수브라운스톤)",37.58224564,127.0348329
541,"제기벽산아파트 지하주차장 지하1,2층 정문,102동앞",서울특별시 동대문구 약령시로 25 (제기동),37.58285016,127.0328467
542,"2호선 용두역 지하 1층, 2층",서울특별시 동대문구 천호대로 지하 129 (용두동),37.57427847,127.0377859
543,"장안현대벤처빌 지하주차장 지하1,2,3층","서울특별시 동대문구 장한로 85 (장안동, 장안현대벤처빌)",37.5684675,127.0689831
544,"이문 래미안2차아파트 지하주차장 지하1,2층","서울특별시 동대문구 이문로12길 3-10 (이문동, 래미안이문2차아파트)",37.59375995,127.0591013
545,한국외국어대 교수학습개발원 지하1층,서울특별시 동대문구 이문로 107 (이문동),37.5965558,127.0599881
546,"휘경 동일스위트리버 지하주차장 지하 1,2층","서울특별시 동대문구 한천로 300 (휘경동, 동일스위트리버)",37.58743616,127.0679541
547,"휘경 주공아파트 지하주차장 지하 1,2층",서울특별시 동대문구 한천로 248 (휘경동),37.58295114,127.0685901
548,답십리 청계벽산메가트리움 지하주차장 지하1층,서울특별시 동대문구 천호대로 241 (답십리동),37.56974611,127.0493361
549,"장안삼성래미안2차 지하주차장 지하 1,2층","서울특별시 동대문구 장안벚꽃로 167 (장안동, 래미안장안2차아파트)",37.57495423,127.0760353
550,답십리 청솔2차우성아파트 지하주차장 지하 1층,"서울특별시 동대문구 전농로10길 80 (답십리동, 청솔2차우성아파트)",37.57583084,127.0619639
551,"용두두산위브아파트 지하주차장 지하1,2층","서울특별시 동대문구 정릉천동로 16 (용두동, 용두두산위브)",37.57362267,127.0352594
552,"용두 래미안허브리츠아파트 지하주차장 지하 1,2층","서울특별시 동대문구 정릉천동로 36 (용두동, 래미안허브리츠)",37.57545776,127.0351685
553,"답십리 청계한신휴플러스 아파트 지하주차장 지하1,2층",서울특별시 동대문구 서울시립대로 14 (답십리동),37.57295874,127.0452717
554,"롯데백화점 청량리역사점 지하1층, 2층","서울특별시 동대문구 왕산로 214 (전농동, 청량리역,롯데백화점)",37.5804978,127.0474603
555,"동부시립병원 지하주차장 지하 1,2층","서울특별시 동대문구 무학로 124 (용두동, 시립동부병원)",37.5752742,127.0309736
556,"답십리 한화아파트 지하주차장 지하 1,2층",서울특별시 동대문구 고미술로 57 (답십리동),37.56692748,127.0538766
557,휘경 롯데아파트 지하주차장 지하 1층,"서울특별시 동대문구 망우로 95 (휘경동, 휘경동롯데아파트)",37.59072549,127.0636631
558,"전농 래미안 아름숲아파트 지하주차장 지하 1,2층","서울특별시 동대문구 전농로16길 51 (전농동, 래미안아름숲)",37.57838147,127.0603593
559,"제기동한신휴플러스 지하주차장 지하1,2층",서울특별시 동대문구 고산자로 534 (제기동),37.58753353,127.0384573
560,"휘경 동부센트레빌 아파트 지하주차장 지하 1,2층",서울특별시 동대문구 외대역동로 14 (휘경동),37.59091982,127.0679466
561,"휘경 이수브라운스톤 아파트 지하주차장 지하 1,2층","서울특별시 동대문구 망우로20길 86 (휘경동, 브라운스톤 휘경)",37.59074256,127.0670787
562,"전농래미안 크레시티 아파트 지하주차장 지하1,2층","서울특별시 동대문구 사가정로 65 (전농동, 래미안크레시티아파트)",37.5748815,127.0528584
563,"답십리 래미안위브 아파트 지하주차장 지하1,2층","서울특별시 동대문구 답십리로 130 (답십리동, 래미안위브아파트)",37.57269551,127.0542115
564,"장안힐스테이트아파트 지하주차장 지하1,2층","서울특별시 동대문구 장안벚꽃로1길 7 (장안동, 장안힐스테이트)",37.5766856,127.0759171
565,"회기힐스테이트아파트지하주차장 1층, 104동앞","서울특별시 동대문구 회기로26길 15 (회기동, 회기힐스테이트)",37.59018808,127.0540778
566,"휘경중학교 거주자 지하 주차장 지하1,2층","서울특별시 동대문구 망우로18나길 20 (휘경동, 휘경중학교)",37.58732458,127.061511
567,"제기서울한방진흥센터공영 지하주차장 1,2층","서울특별시 동대문구 약령중앙로 26 (제기동, 서울한방진흥센터)",37.58061163,127.0372098
568,"전농동신성미소지움아파트 지하주차장 지하 1,2층","서울특별시 동대문구 서울시립대로 75 (전농동, 전농동신성미소지움아파트)",37.5778386,127.0485692
569,"용신e편한세상센트럴포레 지하주차장 지하 1,2,3층","서울특별시 동대문구 무학로 91(용두동, e편한세상 청계센트럴포레 아파트)",37.57237886,127.0292752
570,"서울시립대운동장 지하주차장 1,2,3구역","서울특별시 동대문구 서울시립대로 163, 서울시립대학교 (전농동)",37.58346414,127.0550542
571,"장안 동대문퍼스트데시앙지하주차장 지하1,2층","서울특별시 동대문구 장한로27가길 37(장안동, 동대문더퍼스트데시앙)",37.57476019,127.0710837
572,"휘경SK뷰아파트지하주차장(지하1,2,3층)","서울특별시 동대문구 휘경로 60(휘경동, 휘경에스케이뷰)",37.5941147,127.0663041
573,"휘경해모로아파트지하주차장 지하 1,2층","서울특별시 동대문구 외대역동로1길 60-3(휘경동, 휘경 해모로 프레스티지)",37.59166343,127.0633306
574,"용두동래미안엘리니티1,2단지 지하1,2층","서울특별시 동대문구 한빛로 49(용두동, 래미안엘리니티)",37.57885978,127.0281444
575,"용두동롯데캐슬리치지하주차장 지하1,2층","서울특별시 동대문구 한빛로 73(용두동, 용두롯데캐슬리치)",37.57865726,127.0308288
576,"장안삼성쉐르빌지하주차장 지하1,2,3,4,5층","서울특별시 동대문구 장한로 119(장안동, 장안삼성쉐르빌)",37.57122284,127.0707096
577,뉴한두빌라(지하주차장 1층),"서울특별시 중랑구 면목로84길 8 (면목동, 뉴한두빌라)",37.59190776,127.0871828
581,유영상가(지하주차장 1층),서울특별시 중랑구 봉우재로70길 96 (망우동),37.5914017,127.0968992
585,상봉터미널(지하 1층),"서울특별시 중랑구 상봉로 117 (상봉동, 상봉시외버스터미널)",37.59640845,127.0926659
586,송곡고등학교(지하 1층),"서울특별시 중랑구 양원역로 50 (망우동, 송곡고등학교)",37.60484254,127.1067646
587,용마한신2차아파트(지하주차장 1~2층),"서울특별시 중랑구 사가정로71길 11 (면목동, 용마2차한신아파트)",37.58080972,127.09487
588,메가박스 (구 : 뉴월드씨네마-지하주차장1층),"서울특별시 중랑구 망우로30길 3 (상봉동, 안산빌딩)",37.59328335,127.0746678
589,한국전력공사동대문중랑지사 (지하 1층),"서울특별시 중랑구 동일로 862 (묵동, 한국전력공사(동부지점))",37.60739494,127.0787399
590,용마한신아파트1차 상가 (지하주차장 1층),"서울특별시 중랑구 사가정로71길 19 (면목동, 용마한신아파트)",37.58082617,127.094982
591,용마한신1차아파트3동(지하1층),"서울특별시 중랑구 사가정로71길 19 (면목동, 용마한신아파트)",37.58082617,127.094982
592,동국빌딩(지하주차장1~2층),"서울특별시 중랑구 망우로 390 (망우동, 동국빌딩)",37.59864074,127.0956135
593,면목4동주민센터(지하 1층),"서울특별시 중랑구 면목로 246 (면목동, 면목4동주민센터)",37.57479716,127.0855826
594,가나안교회(지하주차장1층),"서울특별시 중랑구 망우로 239 (중화동, 가나안교회)",37.59513501,127.0790493
595,용마금호타운(지하주차장 1층),"서울특별시 중랑구 용마산로 348 (면목동, 용마금호타운)",37.58294004,127.0937068
596,제일프라자(지하주차장2층),"서울특별시 중랑구 동일로143길 19 (중화동, 제일프라자)",37.60510141,127.0775669
597,"동성1,2차아파트(모든 동의 지하1층)","서울특별시 중랑구 신내로 128 (신내동, 동성아파트)",37.6104311,127.0963176
598,일신강변아파트(지하주차장 1~2층),"서울특별시 중랑구 중랑천로 14 (면목동, 일신강변아파트)",37.58670961,127.0746334
599,동서그랜드맨션(지하주차장 1층),"서울특별시 중랑구 겸재로 92 (면목동, 동서그랜드맨션)",37.58606671,127.0780156
600,진광교회(지하주차장 1층),"서울특별시 중랑구 사가정로41길 34 (면목동, 진광교회)",37.58272029,127.0843354
601,현대아파트(지하주차장 1~6층),"서울특별시 중랑구 용마산로 252 (면목동, 면목현대아파트)",37.57524638,127.0891396
602,건영1차아파트(지하주차장 1~2층),"서울특별시 중랑구 봉화산로48길 62 (상봉동, 건영아파트)",37.60351095,127.0938005
604,국민은행중화지점(지하주차장1-2층),"서울특별시 중랑구 동일로 757 (중화동, 국민은행)",37.59801439,127.0799065
605,중화삼익아파트(지하주차장1층),"서울특별시 중랑구 중랑역로 124 (중화동, 삼익아파트)",37.60439598,127.0777182
606,신내5단지두산대림아파트(지하주차장 1층),"서울특별시 중랑구 신내로21길 16 (묵동, 신내두산대림아파트)",37.6170403,127.0900161
607,이안빌딩(지하주차장 1층),"서울특별시 중랑구 용마산로115길 108 (망우동, 이안빌딩)",37.59804622,127.0943044
608,신세대프라자(지하주차장 2층),"서울특별시 중랑구 겸재로49길 18 (면목동, 신세대프라자)",37.58988566,127.0902895
609,사가정역(지하 1~3층),"서울특별시 중랑구 사가정로 지하 393 (면목동, 사가정역)",37.58080823,127.0883627
610,삼호아파트(지하주차장1~2층),"서울특별시 중랑구 용마산로 259 (면목동, 면목동삼호아파트)",37.57634465,127.0888239
611,용마산역(지하 1~3층),"서울특별시 중랑구 용마산로 지하 227 (면목동, 용마산역)",37.57395976,127.0868174
612,솔원그린타운(지하주차장 1층),"서울특별시 중랑구 동일로91가길 25 (면목동, 솔원그린타운)",37.58408963,127.078843
613,신내쌍용아파트(지하주차장 1층),"서울특별시 중랑구 봉화산로 130 (상봉동, 신내13단지쌍용아파트)",37.60327817,127.0885463
614,건영2차아파트(지하주차장 1~2층),"서울특별시 중랑구 신내로7나길 24 (상봉동, 건영2차아파트)",37.60136659,127.0950624
615,중화역(지하 1~3층),"서울특별시 중랑구 동일로 지하 797 (중화동, 중화역)",37.60162689,127.0794027
616,먹골역(지하 1~3층),"서울특별시 중랑구 동일로 지하 901 (묵동, 먹골역)",37.61085963,127.0776488
617,신내4단지아파트(지하주차장 1층),"서울특별시 중랑구 숙선옹주로 91 (묵동, 신내4단지신내아파트)",37.61634583,127.0858312
618,동성타워아파트(지하주차장 1~4층),"서울특별시 중랑구 봉화산로 221 (신내동, 동성타워프라자)",37.60789216,127.0973201
619,다우훼밀리아파트(지하주차장 1층),"서울특별시 중랑구 송림길 18 (신내동, 다우훼밀리아파트)",37.60045117,127.0959403
620,신내6단지아파트(지하주차장 1층),"서울특별시 중랑구 신내로19길 42 (신내동, 신내6단지신내아파트)",37.61477774,127.0920891
621,신내7단지진로아파트(지하주차장 1층),"서울특별시 중랑구 신내로17길 41 (신내동, 진로아파트)",37.61533796,127.0937169
622,신내8단지두산화성아파트(지하주차장 1층),서울특별시 중랑구 신내로 155 (신내동),37.61294748,127.0962051
623,신내9단지아파트(지하주차장 1층),"서울특별시 중랑구 신내로 127 (신내동, 신내9단지신내아파트)",37.61087465,127.095598
624,신내11단지아파트(지하주차장 1층),"서울특별시 중랑구 봉화산로 193 (신내동, 신내대명아파트)",37.60682908,127.0943394
625,성원아파트(지하주차장 1층),"서울특별시 중랑구 신내로 51 (신내동, 성원아파트)",37.60376396,127.0954766
626,면목역(지하 1~3층),"서울특별시 중랑구 면목로 지하 407 (면목동, 면목역)",37.58839313,127.0875402
627,건영빌라트(지하주차장 1층),"서울특별시 중랑구 동일로91가길 30 (면목동, 건영빌라트)",37.58431843,127.0790062
628,상봉1동주민센터(지하 1층),"서울특별시 중랑구 상봉중앙로1길 6 (상봉동, 상봉1동 주민센터)",37.5998052,127.0872434
629,상봉역(지하 1~3층),"서울특별시 중랑구 망우로 297 (상봉동, 상봉역)",37.59655015,127.0855491
630,서울시체육회(구 : 삼미빌딩 지하주차장2~4층),"서울특별시 중랑구 망우로 182 (상봉동, 서울특별시체육회)",37.59292263,127.073016
633,동성4차아파트(모든 동의 지하주차장 1~3층),"서울특별시 중랑구 봉화산로 216 (신내동, 동성아파트)",37.60739841,127.0966755
634,동성3차아파트(모든 동의 지하주차장 1층),"서울특별시 중랑구 신내로 110 (신내동, 동성아파트)",37.60872962,127.0957397
635,중랑구청(지하주차장 1층),"서울특별시 중랑구 봉화산로 179 (신내동, 중랑구청)",37.60626177,127.0930485
636,중랑구민회관(지하주차장 1층),"서울특별시 중랑구 면목로 238 (면목동, 중랑구민회관)",37.57401636,127.0849612
637,신성은하수아파트(지하주차장 1~2층),"서울특별시 중랑구 중랑천로 43 (면목동, 신성아파트)",37.58908408,127.0732051
638,신우아파트101동 지하주차장(1층~3층),"서울특별시 중랑구 동일로 569-55 (면목동, 신우아파트)",37.58043684,127.0792393
639,면목진로아파트(지하주차장 1~2층),"서울특별시 중랑구 용마산로94길 91 (면목동, 진로아파트)",37.58777976,127.1015601
640,중화건영아파트(지하주차장 1층),"서울특별시 중랑구 동일로140길 88 (중화동, 중화동건영아파트)",37.60568383,127.0832598
641,중화한신아파트(지하주차장 1~2층),"서울특별시 중랑구 동일로 752 (중화동, 중화한신아파트)",37.59758325,127.0805817
642,정상빌딩(지하주차장1층),"서울특별시 중랑구 중랑역로 100 (중화동, 정상빌딩)",37.60234842,127.0777418
643,신도아파트(지하주차장 1층),"서울특별시 중랑구 공릉로13길 30 (묵동, 묵동신도아파트)",37.61669762,127.0776074
644,우도빌딩(지하주차장 1층),"서울특별시 중랑구 망우로 214 (상봉동, 우도빌딩)",37.59384033,127.0765164
645,신안1차아파트(지하주차장 1층),"서울특별시 중랑구 공릉로2라길 15 (묵동, 신안1차아파트)",37.61281717,127.0813591
646,한국아파트(지하주차장 1층~3층),"서울특별시 중랑구 중랑천로 332 (묵동, 묵동한국아파트)",37.61423826,127.0731834
647,극동아파트(지하주차장 1층~2층),"서울특별시 중랑구 동일로 941 (묵동, 극동늘푸른아파트)",37.61433583,127.0765063
648,신원아파트(지하주차장 1~2층),"서울특별시 중랑구 망우로 504-7 (망우동, 신원아파트)",37.60013367,127.1081638
649,새한아파트(모든 동의 지하주차장 1층),"서울특별시 중랑구 용마산로 616 (신내동, 새한아파트)",37.60602879,127.1010549
650,금란교회(지하주차장 3~6층),서울특별시 중랑구 망우로 455 (망우동),37.60054773,127.1027727
651,동구햇살아파트(지하주차장1층),"서울특별시 중랑구 중랑역로 72 (중화동, 동구햇살아파트)",37.59965004,127.07829
652,대원칸타빌아파트(지하주차장 1~2층),"서울특별시 중랑구 용마산로 285 (면목동, 대원칸타빌아파트)",37.57827826,127.0907294
653,한일써너스빌(지하주차장 1층),"서울특별시 중랑구 망우로 346 (상봉동, 한일써너스빌아파트)",37.59752952,127.0907542
654,면목5동주민센터(지하주차장 1~2층),"서울특별시 중랑구 동일로 619 (면목동, 면목5동 복합청사)",37.5857519,127.0796416
655,면목동신성미소지움아파트(지하주차장 1~2층),"서울특별시 중랑구 용마산로86길 9-27 (면목동, 면목동신성미소지움아파트)",37.58719773,127.0963456
656,면목본동주민센터(지하주차장 1~2층),서울특별시 중랑구 면목로 397 (면목동),37.58724053,127.0876898
657,청원다미소아파트(지하주차장 1층),"서울특별시 중랑구 동일로136길 10 (중화동, 청원다미소아파트)",37.60219286,127.0800751
658,경남아너스빌아파트(지하주차장 1~2층),"서울특별시 중랑구 답십리로75길 73 (면목동, 경남아너스빌아파트)",37.57497538,127.0807278
660,면목두산아파트2차(지하주차장 1~2층),"서울특별시 중랑구 면목로37길 58 (면목동, 두산아파트)",37.58016132,127.0833797
661,면목두산아파트3차(지하주차장 1~2층),"서울특별시 중랑구 면목로37길 57 (면목동, 두산아파트)",37.58002532,127.0833339
662,면목동2차미소지움아파트(지하주차장 1층),"서울특별시 중랑구 용마산로86길 9-14 (면목동, 면목동2차미소지움아파트)",37.58699855,127.0963841
663,건영캐스빌아파트(지하주차장 1~2층),"서울특별시 중랑구 상봉중앙로8길 76 (상봉동, 건영캐스빌)",37.60315859,127.0910576
664,면목5동공영주차장 (지하 1층),서울특별시 중랑구 동일로 594 (면목동),37.58635756,127.0802425
665,미영리치타운아파트(지하주차장1-2층),"서울특별시 중랑구 망우로 223-8 (중화동, 미영리치타운102)",37.59492954,127.0776176
666,현대아이파크아파트(지하주차장 1층~2층),"서울특별시 중랑구 중랑천로 286 (묵동, 묵동아이파크아파트)",37.61023283,127.073109
667,중랑해모로아파트(지하주차장 1~2층),"서울특별시 중랑구 양원역로6가길 19 (망우동, 중랑해모로아파트)",37.60259082,127.1099068
668,금호어울림아파트2차(지하주차장 1~2층),"서울특별시 중랑구 양원역로 18 (망우동, 금호어울림아파트)",37.60210784,127.1081817
669,까치공영주차장(지하 1층),"서울특별시 중랑구 사가정로49길 56 (면목동, 까치어린이공원)",37.58345591,127.0869488
670,금호어울림아파트1차(지하주차장 1~2층),"서울특별시 중랑구 양원역로 18 (망우동, 금호어울림아파트)",37.60210784,127.1081817
671,청광플러스원아파트(지하주차장 1층),"서울특별시 중랑구 동일로136길 15 (중화동, 청광플러스원)",37.60244106,127.0804007
672,면목2동 공영주차장(지하 1층),"서울특별시 중랑구 겸재로23길 27 (면목동, 면목2동 공동주차장)",37.5880846,127.0809972
673,동구햇살아파트(지하주차장 1층),"서울특별시 중랑구 동일로169길 41 (묵동, 동구햇살아파트)",37.61356581,127.0744397
674,월드메르디앙아파트(지하주차장 1층),"서울특별시 중랑구 중랑천로 316 (묵동, 묵동월드메르디앙아파트)",37.61306814,127.073114
675,중목초등학교(지하주차장 1층),"서울특별시 중랑구 동일로 665 (면목동, 중목초등학교)",37.589805,127.0793259
676,풍림아파트(지하주차장 1~3층),"서울특별시 중랑구 망우로26길 43 (면목동, 풍림아파트)",37.5906813,127.0721316
678,면목아남리치카운티아파트(지하주차장 1층),"서울특별시 중랑구 겸재로29길 27 (면목동, 아남리치카운티아파트)",37.5893526,127.0851382
679,면목마젤란21아파트(지하주차장 1층),"서울특별시 중랑구 겸재로30길 42 (면목동, 면목마젤란21아파트)",37.58663606,127.0841759
680,상봉우정아파트(지하주차장 1층),"서울특별시 중랑구 상봉중앙로1다길 21 (상봉동, 우정아파트)",37.59912413,127.0887886
681,신내12단지아파트(지하주차장 1층),"서울특별시 중랑구 봉화산로 153 (상봉동, 신내12단지신내아파트)",37.60472374,127.0907945
682,동부아파트(지하주차장 1층),"서울특별시 중랑구 신내로7가길 31 (상봉동, 동부아파트)",37.60236455,127.0940895
683,상봉태영데시앙아파트(지하주차장 1~2층),"서울특별시 중랑구 상봉중앙로8길 104 (상봉동, 태영데시앙아파트)",37.60390147,127.0922153
684,한국프라우드아파트(지하주차장 1층),"서울특별시 중랑구 망우로55길 32 (상봉동, 한국프라우드)",37.59893,127.0938353
685,봉화산역(지하 1층),"서울특별시 중랑구 신내로 지하 232 (신내동, 봉화산역)",37.6176239,127.0909233
686,예성그린캐슬아파트(지하주차장 1층),"서울특별시 중랑구 용마산로112가길 34 (망우동, 예성그린캐슬아파트)",37.5973491,127.102336
687,한울네세창아파트(지하주차장 1~2층),"서울특별시 중랑구 망우로76길 51 (망우동, 한울네 세창아파트)",37.59837586,127.1062708
688,한일써너스빌리젠시1단지아파트(지하주차장 1~5층),"서울특별시 중랑구 용마산로115길 127 (망우동, 한일써너스빌리젠시1단지)",37.59750512,127.0934209
689,한일써너스빌리젠시2단지아파트(지하주차장 1~5층),"서울특별시 중랑구 용마산로115길 109 (망우동, 한일써너스빌리젠시2단지)",37.59787097,127.0943508
690,면일초등학교(지하주차장 1층),서울특별시 중랑구 용마산로100길 13-0 (망우동),37.59153997,127.0988511
691,데시앙아파트(모든 동의 지하주차장 1층),"서울특별시 중랑구 용마산로 669 (신내동, 신내데시앙아파트)",37.61088026,127.1008714
692,우남푸르미아아파트(모든 동의 지하주차장 1층),"서울특별시 중랑구 봉화산로56길 51 (신내동, 우남푸르미아아파트)",37.60629869,127.0985777
693,경남아너스빌아파트(모든 동의 지하주차장 1층),"서울특별시 중랑구 봉화산로56길 112 (신내동, 신내동 경남아너스빌)",37.60387407,127.0971571
694,벽산아파트(모든 동의 지하주차장 1층),"서울특별시 중랑구 용마산로125길 50 (신내동, 벽산아파트)",37.60333095,127.1005028
695,대성유니드아파트(지하주차장 1층),"서울특별시 중랑구 봉화산로56길 140 (신내동, 대성유니드아파트)",37.60263889,127.0967161
696,석탑아파트(모든 동의 지하주차장 1층),"서울특별시 중랑구 용마산로125길 92 (신내동, 석탑아파트)",37.60368868,127.1009055
697,영풍마드레빌(모든 동의 지하주차장 1층),"서울특별시 중랑구 용마산로129가길 41 (신내동, 영풍마드레빌)",37.6057342,127.099801
698,중앙하이츠아파트(모든 동의 지하주차장 1층),"서울특별시 중랑구 봉화산로56길 123 (신내동, 중앙하이츠아파트)",37.60324737,127.0972894
699,서울의료원(지하주차장 1~3층),"서울특별시 중랑구 신내로 156 (신내동, 서울의료원)",37.61287382,127.0967197
700,중곡초등학교(지하주차장 1층),"서울특별시 중랑구 면목로23길 20 (면목동, 중곡초등학교)",37.57354806,127.0832274
701,면목동원베네스트 (지하주차장 1층),"서울특별시 중랑구 사가정로41길 59 (면목동, 면목동원베네스트)",37.58371102,127.084206
702,두산아파트(1차) (지하주차장 1층),"서울특별시 중랑구 사가정로41길 9 (면목동, 두산아파트)",37.58163256,127.0841645
703,두원아파트(지하주차장 1~2층),"서울특별시 중랑구 동일로 483 (면목동, 두원아파트)",37.57344618,127.0798057
704,건영2차아파트(지하주차장 1층),"서울특별시 중랑구 신내로7길 20 (신내동, 건영2차아파트)",37.60214602,127.0960015
705,신아타운(지하주차장 1~4층),"서울특별시 중랑구 봉화산로 194 (신내동, 신아타운)",37.60654313,127.0946291
706,신내관상복합청사(지하주차장 1~4층),"서울특별시 중랑구 봉화산로 190 (신내동, 신내2동 관상복합청사)",37.6063736,127.09408
708,성원아파트(지하주차장 1~2층),"서울특별시 중랑구 용마산로 278 (면목동, 면목동성원아파트)",37.57741901,127.0903142
709,용마금호어울림아파트(지하주차장 1~2층),"서울특별시 중랑구 용마산로 290 (면목동, 용마산금호어울림아파트)",37.57825134,127.0911366
710,용마동아아파트(지하주차장 1층),"서울특별시 중랑구 용마산로62길 43 (면목동, 용마동아아파트)",37.57849715,127.0943187
711,면목금호어울림아파트(각 동 지하1층),"서울특별시 중랑구 용마산로 271 (면목동, 면목금호어울림아파트)",37.57727355,127.0897248
712,태능에셈빌아파트(지하주차장1-3층),"서울특별시 중랑구 동일로129길 35 (중화동, 태능에셈빌)",37.59929631,127.0776308
713,묵동자이아파트 1단지(지하주차장 1~2층),"서울특별시 중랑구 숙선옹주로 6-9 (묵동, 묵동자이아파트1단지)",37.61510334,127.0778184
714,묵동자이아파트 2단지(지하주차장 2~4층),"서울특별시 중랑구 동일로 932 (묵동, 묵동자이아파트)",37.61363215,127.0772579
715,공감대아파트(지하주차장 1층),"서울특별시 중랑구 공릉로 32 (묵동, 공감대아파트)",37.61362638,127.0782187
716,해오름아파트(지하주차장 1층),"서울특별시 중랑구 공릉로4길 4 (묵동, 묵동해오름아파트)",37.61319246,127.0782786
717,SM해그린아파트(지하주차장 1층),"서울특별시 중랑구 공릉로2나길 32-12 (묵동, 묵동sm해그린아파트)",37.61342778,127.0801801
718,금호어울림아파트(지하주차장 1층),"서울특별시 중랑구 공릉로2길 39 (묵동, 금호어울림아파트)",37.61220401,127.0801408
719,세방아파트(지하주차장 1층),"서울특별시 중랑구 숙선옹주로9길 25 (묵동, 세방아파트)",37.61581631,127.0835109
720,구민체육센터(지하주차장 1층),"서울특별시 중랑구 신내로15길 189 (묵동, 중랑구민체육센터)",37.61525228,127.0875819
721,브라운스톤아파트(지하주차장 1층),"서울특별시 중랑구 공릉로18길 59 (묵동, 브라운스톤태릉아파트)",37.61840881,127.0822677
722,신도주상복합아파트(지하주차장 1층),"서울특별시 중랑구 동일로 946 (묵동, 묵동신도주상복합아파트)",37.61488917,127.0767846
723,늘푸른동아아파트(지하주차장 1~2층),"서울특별시 중랑구 동일로 476 (면목동, 늘푸른동아아파트)",37.5728251,127.0803455
724,삼익아파트(지하주차장 1~2층),"서울특별시 중랑구 동일로 501 (면목동, 면목삼익아파트)",37.57511262,127.0796976
725,면목두산6단지아파트(지하주차장 1~2층),"서울특별시 중랑구 답십리로77길 139 (면목동, 면목두산아파트)",37.57769718,127.0806887
726,디아뜨갤러리(지하주차장 1~2층),"서울특별시 중랑구 신내로 225 (신내동, 디아뜨갤러리)",37.61710081,127.0914327
727,금강리빙스텔(지하주차장 1~2층),"서울특별시 중랑구 신내로 211 (신내동, 금강리빙스텔)",37.61648281,127.0927263
728,신내10단지아파트(1008동) 지하주차장1층,"서울특별시 중랑구 신내로 115 (신내동, 신내10단지신내아파트)",37.6094671,127.0955376
729,중흥초등학교(지하 1층),"서울특별시 중랑구 봉화산로 82 (중화동, 서울중흥초등학교)",37.60161199,127.0838382
730,면목두산아파트 4단지 (지하주차장 1~3층),서울특별시 중랑구 면목로35길 63 (면목동),37.57929256,127.0827523
731,신내데시앙포레 (모든 동의 지하주차장 1~3층),"서울특별시 중랑구 신내역로 165 (신내동, 신내 데시앙포레)",37.61662991,127.1103599
732,상봉프레미어스엠코(상봉이노시티) 지하주차장 3~7층,"서울특별시 중랑구 망우로 353 (상봉동, 상봉프레미어스엠코)",37.59808675,127.0913233
733,주함해븐아파트(지하주차장 1층),서울특별시 중랑구 용마산로 463 (망우동),37.59271044,127.0983743
734,신내우디안1단지아파트(모든 동의 지하주차장 1~3층),"서울특별시 중랑구 신내역로1길 85 (신내동, 신내우디안1단지)",37.61646226,127.1074394
735,망우본동 복합청사(지하1~2층),"서울특별시 중랑구 망우로67길 10 (망우동, 망우본동복합청사)",37.60060836,127.1013237
736,중랑숲리가아파트(지하주차장 1~2층),"서울특별시 중랑구 망우로75길 19 (망우동, 중랑숲리가아파트)",37.60158653,127.1045766
737,중랑초등학교 공영주차장 (지하 1층),"서울특별시 중랑구 봉우재로6길 26 (면목동, 중랑초등학교)",37.58884664,127.0764819
738,용마산하늘채아파트(지하주차장 1~2층),"서울특별시 중랑구 용마산로 210 (면목동, 용마산 하늘채)",37.57242463,127.0863715
739,사가정 센트럴 아이파크(지하주차장 1~2층),"서울특별시 중랑구 동일로92길 40 (면목동, 사가정센트럴아이파크)",37.58328117,127.0812632
740,한양수자인 사가정파크(지하주차장 1~2층),"서울특별시 중랑구 사가정로72길 26(면목동, 한양수자인사가정파크)",37.57967547,127.0946789
741,쌍용더플래티넘(지하주차장 1~3층),"서울특별시 중랑구 용마산로 209(면목동, 쌍용 더 플래티넘 용마산)",37.5723261,127.0859388
742,면목라온 프라이빗 아파트(지하주차장 1~ 2층),"서울특별시 중랑구 동일로91길 23(면목동, 라온프라이빗)",37.58289723,127.078237
743,신내글로리움(지하주차장 1층),"서울특별시 중랑구 신내로 208(신내동, 신내글로리움)",37.61688029,127.0934464
744,금강펜트리움 센트럴파크(지하 1~2층),"서울특별시 중랑구 용마산로136길 160(망우동, 신내역 금강펜테리움 센트럴파크)",37.60982992,127.1097478
745,금호어울림 포레스트(지하1~2층),"서울특별시 중랑구 양원역로10길 75(망우동, 양원 금호어울림 포레스트)",37.60730624,127.1101535
746,힐데스하임 참좋은아파트(지하1~2층),"서울특별시 중랑구 봉화산로 301(망우동, 신내역 힐데스하임 참좋은아파트)",37.60966935,127.1054762
747,엘스타시온(중랑숲 시티프라디움) 아파트(지하 1~2층),"서울특별시 중랑구 양원역로10길 47(망우동, 중랑숲 시티프라디움)",37.60721042,127.1084952
748,금호아파트(지하주차장 1~2층),"서울특별시 중랑구 망우로 504-10(망우동, 금호아파트)",37.59993819,127.1080265
749,용마산모아엘가파크포레 (모든 동의 지하주차장1~2층),서울특별시 중랑구 용마산로84길 9-16 (면목동),37.58580393,127.0957705
750,신내SK V1센터,"서울특별시 중랑구 신내역로 111, 신내 SK V1 center (신내동)",37.61312174,127.1124419
751,한성대입구역(4호선),"서울특별시 성북구 삼선교로 지하 1 (삼선동1가, 한성대입구역)",37.58846822,127.0063167
752,성신여대역(4호선) 지하1층,"서울특별시 성북구 동소문로 지하 102 (동선동4가, 성신여대입구역)",37.59262416,127.0165538
753,정릉길지하보도(지하1층),"서울특별시 성북구 정릉로 157 (정릉동, 백산빌딩)",37.60781972,127.002619
754,하월곡아남아파트지하주차장 1층,서울특별시 성북구 종암로36길 52 (하월곡동),37.60603859,127.0344945
755,"돈암현대아파트(103,104,105동)지하주차장(1층)",서울특별시 성북구 정릉로 404 (돈암동),37.6040509,127.0270599
756,"고려대학교 안암병원 지하주차장 B2,B3","서울특별시 성북구 고려대로 73 (안암동5가, 고려대병원)",37.58649716,127.0274525
757,석관동 삼성아파트(1개동) 지하주차장 1층,서울특별시 성북구 한천로68길 51 (석관동),37.61002434,127.0658817
758,석관동 중앙하이츠 지하주차장(지하1~2층),서울특별시 성북구 한천로76길 73 (석관동),37.61079023,127.066734
759,두산아파트(지하1층 ~지하3층),서울특별시 성북구 화랑로48길 16 (석관동),37.61406335,127.0671214
760,"코오롱아파트(101,106동) 지하주차장(지하1~2층)",서울특별시 성북구 한천로 509 (석관동),37.60594596,127.0664168
761,길음현대아파트 지하주차장(지하1층),서울특별시 성북구 길음로13길 11 (길음동),37.60849453,127.0198323
762,"풍림아파트(102,104) 지하주차장 3층",서울특별시 성북구 북악산로 913 (돈암동),37.59554878,127.0229493
763,"범양아파트(102,103동) 지하주차장(지하1층~3층)","서울특별시 성북구 정릉로 402-16 (돈암동, 범양아파트)",37.60365636,127.0274934
764,"삼성APT(102,104,106~7동)지하주차장1~3층",서울특별시 성북구 동소문로34길 24 (돈암동),37.59896847,127.0224474
765,상월곡역(지하철6호선)(지하1~3층),서울특별시 성북구 화랑로 지하 157 (상월곡동),37.60631727,127.0482661
766,동소문송산아파트 101동 지하주차장(지하1~3층),서울특별시 성북구 동소문로3길 101 (동소문동4가),37.59199453,127.0099515
767,한성여자고등학교 지하주차장,"서울특별시 성북구 삼선교로16길 117, 한성여자고등학교 (삼선동2가)",37.58246228,127.011457
768,한진한신아파트 지하주차장 (지하1층 ~ 지하6층),서울특별시 성북구 성북로4길 52 (돈암동),37.59109173,127.0070467
769,삼선동코오롱아파트(101~105동)지하주차장(지하2층),서울특별시 성북구 삼선교로23길 23 (삼선동4가),37.59051651,127.0137945
770,길음역(지하1~3층),"서울특별시 성북구 동소문로 지하 248 (길음동, 길음역)",37.60302621,127.024672
771,길음삼부컨비니언아파트 지하주차장(지하1층),서울특별시 성북구 동소문로 248 (길음동),37.60330689,127.0241019
772,월곡역사(지하철6호선),서울특별시 성북구 월곡로 지하 107 (하월곡동),37.60162738,127.0412222
773,하월곡동신아파트지하주차장 1층~2층,서울특별시 성북구 오패산로3길 17 (하월곡동),37.60428046,127.0362985
774,동아에코빌아파트 지하주차장(지하1~3층),서울특별시 성북구 장월로1길 28 (상월곡동),37.60712599,127.0459952
775,이마트미아점 지하주차장(지하2층),서울특별시 성북구 도봉로 17 (길음동),37.61085019,127.0300224
776,안암역 지하 1~3층,"서울특별시 성북구 고려대로 지하 89 (안암동5가, 안암역)",37.58634725,127.0292667
777,보문역 대합실 지하1~3층,서울특별시 성북구 보문로 지하 116 (보문동1가),37.58539938,127.0194708
778,시립성북청소년센터(지하 1층~2층),"서울특별시 성북구 한천로 660-9, 성북청소년수련관 (장위동)",37.61756636,127.0559933
779,돌곶이역(6호선),서울특별시 성북구 화랑로 지하 243 (석관동),37.61064659,127.0564465
780,"삼성래미안아파트(109,110,114제외)지하1층~3층",서울특별시 성북구 종암로25길 30 (종암동),37.6003709,127.0313783
781,샹그레빌아파트 지하주차장(지하1~3층),서울특별시 성북구 회기로5길 100 (하월곡동),37.5956204,127.0410018
782,길음지하보도(지하1층),서울특별시 성북구 동소문로 지하234 (길음동),37.60278024,127.0227456
784,성북구청(지하1~4층),서울특별시 성북구 보문로 168 (삼선동5가),37.58935582,127.0164746
785,월곡래미안루나밸리아파트 지하주차장(지하1~3층),서울특별시 성북구 월곡로14길 26 (하월곡동),37.60010419,127.0419182
786,"석관동 래미안아파트(101,110동) 지하주차장1~2층",서울특별시 성북구 화랑로 214 (석관동),37.60895307,127.0537997
787,고려대학교 이과대학 하나스퀘어 지하주차장(지하2~3층),서울특별시 성북구 고려대로22길 6-7 (안암동5가),37.58599801,127.0284009
788,안암래미안아파트 101동 지하주차장 1층,"서울특별시 성북구 고려대로17가길 64 (안암동1가, 래미안안암)",37.58889706,127.0234493
789,정릉중앙하이츠빌2단지아파트(201~9동) 지하주차장2층,서울특별시 성북구 정릉로26길 8 (정릉동),37.6042326,127.0106828
790,장월SH빌1단지아파트 지하주차장(지하 1층~2층),서울특별시 성북구 한천로101길 54 (장위동),37.62195679,127.0478308
791,정릉우성아파트 104동 지하주차장 1층~3층,서울특별시 성북구 북악산로 813 (정릉동),37.60075847,127.0150203
792,길음동동부센트레빌아파트 지하주차장(지하1~4층),"서울특별시 성북구 숭인로2길 61 (길음동, 길음동동부센트레빌아파트)",37.60885857,127.0238475
793,성북힐스테이트 지하주차장(지하1~4층),서울특별시 성북구 동소문로44길 43 (하월곡동),37.60649241,127.0304181
794,동원베네스트아파트(1개동구성)지하주차장(지하1~2층),서울특별시 성북구 화랑로 271 (장위동),37.61210276,127.0588547
795,장위우방아파트(1개동구성)지하주차장(지하1~2층),서울특별시 성북구 화랑로 235 (장위동),37.61030505,127.0555147
797,정릉힐스테이트3차 아파트 지하주차장(지하1층-지하2층),서울특별시 성북구 보국문로 116 (정릉동),37.61394961,127.0064568
798,정릉대우아파트 지하주차장(지하1층~지하3층),서울특별시 성북구 보국문로30길 15 (정릉동),37.61742072,127.0039047
799,월곡래미안월곡아파트지하주차장 1층~3층,서울특별시 성북구 오패산로 90 (하월곡동),37.61003115,127.0357964
800,월곡두산위브아파트지하주차장 1층~3층,서울특별시 성북구 오패산로 46 (하월곡동),37.60625959,127.0370046
801,월곡두산위브아파트(임대) 지하주차장 1층~3층,"서울특별시 성북구 오패산로 46 (하월곡동, 월곡두산위브아파트)",37.60625959,127.0370046
802,월곡3에스에이치빌지하주차장 1층~2층,서울특별시 성북구 오패산로 90 (하월곡동),37.61003115,127.0357964
803,한신휴아파트(122동~124동) 지하2층주차장,서울특별시 성북구 동소문로15길 99 (동소문동7가),37.59566451,127.014273
804,길음래미안1차아파트 지하주차장(지하1~3층),서울특별시 성북구 길음로9길 40 (길음동),37.60523053,127.0197816
805,길음래미안2차아파트 지하주차장(지하2층),서울특별시 성북구 길음로 74 (길음동),37.60908404,127.0205294
806,길음래미안 3차아파트 지하주차장(지하1~3층),서울특별시 성북구 길음로 16 (길음동),37.60458381,127.0234039
807,길음뉴타운 대림아파트-e편한세상 지하주차장(1~3층),서울특별시 성북구 길음로 118 (길음동),37.61224172,127.0177911
808,"길음뉴타운푸르지오2,3단지아파트지하주차장(지하1~6층)",서울특별시 성북구 길음로 119 (길음동),37.6122905,127.0173956
809,길음뉴타운래미안8단지아파트 4차지하주차장(지하1~3층),서울특별시 성북구 길음로 33 (길음동),37.60574692,127.0218948
810,길음뉴타운래미안9단지아파트5차지하주차장(지하1~3층),서울특별시 성북구 길음로9길 50 (길음동),37.60475618,127.0196892
811,길음뉴타운위브7단지아파트 지하주차장(지하1~4층),서울특별시 성북구 길음로13길 22 (길음동),37.60866523,127.0192568
812,꿈의숲대명루첸아파트 지하주차장(지하 2층~3층),서울특별시 성북구 월계로36길 27 (장위동),37.62007872,127.0465301
813,참누리아파트 지하주차장(지하 1층~2층),서울특별시 성북구 한천로101길 18 (장위동),37.6227267,127.0497877
814,삼익아파트 지하주차장(지하 1층~3층),서울특별시 성북구 화랑로37길 42 (장위동),37.61341683,127.0573944
815,유타쇼핑몰  지하주차장1~6층,서울특별시 성북구 동소문로 106 (동선동1가),37.59267531,127.0170492
816,길음 서희스타힐스 지하주차장(지하1~6층),"서울특별시 성북구 동소문로 284 (하월곡동, 길음 서희스타힐스)",37.60549364,127.0271402
817,정릉성원아파트(정릉3동)지하주차장(지하1~2층),"서울특별시 성북구 정릉로21길 21 (정릉동, 정릉성원아파트)",37.60665935,127.0088393
818,대동아파트(정릉3동)지하주차장(지하1층),"서울특별시 성북구 정릉로 185-4 (정릉동, 대동아파트)",37.60779905,127.0058781
819,정릉중앙하이츠빌1단지(101~105동) 지하주차장3층,"서울특별시 성북구 아리랑로19길 60 (정릉동, 중앙하이츠빌1단지아파트)",37.60213783,127.0102018
821,푸른마을동아아파트(101~107동)지하1~3층주차장,"서울특별시 성북구 서경로 31 (정릉동, 푸른마을 동아아파트)",37.60654543,127.0150041
822,정릉푸르지오아파트(101~7동)지하주차장(지하1~2층),"서울특별시 성북구 보국문로 19 (정릉동, 정릉푸르지오아파트)",37.60632295,127.0106588
823,정릉쌍용아파트 지하주차장 1층~2층,"서울특별시 성북구 북악산로 847 (정릉동, 정릉쌍용아파트)",37.59919856,127.0185979
824,길음뉴타운10단지라온유아파트 지하주차장 2층~4층,"서울특별시 성북구 정릉로 307 (정릉동, 라온유 아파트)",37.60316086,127.017643
825,정릉힐스테이트 지하주차장 1층~2층,"서울특별시 성북구 정릉로 292 (정릉동, 정릉힐스테이트)",37.6031864,127.0157761
826,정릉스카이쌍용아파트 지하주차장 1층~3층,"서울특별시 성북구 북악산로 828 (정릉동, 정릉스카이쌍용아파트)",37.60011869,127.0162319
827,데시앙 1단지 지하주차장 2층/ 2단지 지하주차장 1층,"서울특별시 성북구 서경로 28 (정릉동, 길음뉴타운 데시앙)",37.60615068,127.0151243
828,길음뉴타운 경남아너스빌 지하주차장 1층~3층,"서울특별시 성북구 정릉로 305 (정릉동, 길음뉴타운 경남아너스빌)",37.60319081,127.017471
829,꿈의숲푸르지오아파트지하주차장 1층~2층,서울특별시 성북구 오패산로16가길 40 (하월곡동),37.60998588,127.0384531
830,동일하이빌뉴시티 지하주차장(지하3~6층),서울특별시 성북구 종암로 167 (하월곡동),37.60474415,127.0312272
831,이마트 하월곡점 지하주차장(지하4~6층),서울특별시 성북구 종암로 167 (하월곡동),37.60474415,127.0312272
832,"래미안라센트아파트(111동,112동 제외)지하2층",서울특별시 성북구 종암로24가길 80 (종암동),37.60025518,127.0386083
833,종암에스케이아파트(107동 제외)지하2층,서울특별시 성북구 종암로24가길 53 (종암동),37.59988882,127.0375209
834,종암2차SKVIEW(전동)지하주차장1층~2층,"서울특별시 성북구 종암로24길 35 (종암동, 종암2차 SK VIEW)",37.60144605,127.0353176
835,래미안세레니티아파트(전동) 지하1층~2층,"서울특별시 성북구 종암로23길 35 (종암동, 래미안세레니티)",37.59957745,127.0319913
836,종암우림카이저팰리스아파트(전동)지하1층~지하3층,서울특별시 성북구 종암로 132 (종암동),37.60186866,127.0333871
837,일신건영휴먼빌 지하주차장 (지하1층 ~ 지하3층),서울특별시 성북구 아리랑로 89 (돈암동),37.60053279,127.0134922
838,브라운스톤 돈암아파트 지하주차장 (지하1층 ~ 지하5층,서울특별시 성북구 북악산로 844 (돈암동),37.59909554,127.0179313
839,돈암힐스테이트 지하주차장 (지하1층 ~ 지하3층),서울특별시 성북구 아리랑로 68 (돈암동),37.59865439,127.0145334
840,돈암더샵 지하주차장 (지하1층 ~ 지하3층),서울특별시 성북구 아리랑로5길 85 (돈암동),37.59784798,127.010549
841,동소문현대아파트 지하 주차장 (지하1층),서울특별시 성북구 아리랑로5길 50-8 (돈암동),37.59747588,127.0125008
842,돈암신일해피트리아파트 지하주차장 (지하1층 ~ 지하3층,서울특별시 성북구 아리랑로5길 92 (돈암동),37.59803413,127.0111526
843,월곡2에스에이치빌 지하주차장(지하1~2층),서울특별시 성북구 회기로5길 142 (하월곡동),37.59764037,127.0413287
844,"월곡갑을명가 지하주차장(지하3,4)",서울특별시 성북구 화랑로11길 26 (하월곡동),37.60332257,127.0419545
845,수산동양빌 지하주차장(지하1~2층),서울특별시 성북구 오패산로4길 11 (하월곡동),37.60410007,127.03831
846,삼선현대힐스테이트(101~109동) 지하주차장 1층,서울특별시 성북구 낙산길 243-15 (삼선동2가),37.58266304,127.0147181
847,삼선SK VIEW아파트(101~107동)지하주차장 1층,서울특별시 성북구 삼선교로16길 35 (삼선동3가),37.5867832,127.011022
848,삼선푸르지오아파트(103~124동) 지하주차장 1층,서울특별시 성북구 보문로29다길 31 (삼선동2가),37.58429783,127.0133346
849,"신동아파밀리에아파트(103동,104동) 지하3~지하2층","서울특별시 성북구 화랑로 210-26 (석관동, 석관동 신동아 파밀리에)",37.60783827,127.0536289
850,그린빌아파트 지하주차장(지하1층),서울특별시 성북구 돌곶이로41가길 54 (장위동),37.61767576,127.0430237
851,"보문아이파크아파트(103,104동) 지하주차장 1,2층",서울특별시 성북구 지봉로21길 19 (보문동3가),37.58556182,127.0172379
852,보문하우스토리(101동) 지하주차장 1~4층,"서울특별시 성북구 고려대로2길 37, 보문하우스토리 (보문동4가)",37.58393449,127.0209257
853,이편한세상보문(201동) 지하주차장 2층,서울특별시 성북구 낙산길 255 (보문동3가),37.58202744,127.0154636
855,"길음역금호어울림센터힐(102,105동)지하주차장1~4층","서울특별시 성북구 동소문로34길 73 (돈암동, 길음역금호어울림센터힐)",37.60085873,127.0237581
857,돈암코오롱하늘채아파트 지하주차장 (지하1층 ~ 지하4층,"서울특별시 성북구 아리랑로 75 (돈암동, 돈암코오롱하늘채)",37.59914492,127.0137384
858,정릉e편한세상1차아파트 지하주차장(지하1~3층),"서울특별시 성북구 솔샘로24길 15 (정릉동, 정릉이-편한세상)",37.61546289,127.0092019
860,성신여자대학교교직원주차장(수정관) 지하 2층,"서울특별시 성북구 보문로34다길 2 (돈암동, 성신여자대학교)",37.59128839,127.0209656
861,브라운스톤동선아파트 지하1층 주차장,"서울특별시 성북구 아리랑로5길 25 (동소문동7가, 브라운스톤 동선아파트)",37.59669989,127.0138439
862,정릉풍림아이원아파트(지하주차장)(지하1~2층),"서울특별시 성북구 솔샘로25길 28 (정릉동, 정릉풍림아이원아파트)",37.61735625,127.0075548
863,꿈의숲코오롱하늘채아파트 지하주차장(지하 1층~3층),"서울특별시 성북구 돌곶이로 220 (장위동, 꿈의숲코오롱하늘채아파트)",37.6190421,127.04596
864,래미안장위포레카운티아파트 지하주차장(지하 1층~2층),"서울특별시 성북구 장월로 160 (장위동, 래미안장위포레카운티)",37.61860832,127.0525034
865,래미안장위퍼스트하이아파트 지하주차장(지하 1층~2층),"서울특별시 성북구 한천로 713 (장위동, 래미안장위퍼스트하이)",37.61998995,127.0527964
866,꿈의숲 아이파크 지하주차장(지하2층),서울특별시 성북구 돌곶이로40길 46(장위동),37.61978889,127.0485989
867,가든타워 빌딩(지하 2~6층 주차장) (번1동),"서울특별시 강북구 도봉로 328 (번동, 가든타워빌딩)",37.63717874,127.0251186
870,교보생명 빌딩(지하 2~3층 주차장) (번1동),서울특별시 강북구 도봉로 348 (번동),37.63842005,127.0265223
872,통일교육원-인수동(지하1층),"서울특별시 강북구 4.19로 123 (수유동, 통일교육원)",37.64243388,127.002602
874,삼성아파트 지하2층 주차장(번1동),"서울특별시 강북구 도봉로98길 33 (번동, 삼성아파트)",37.64124324,127.031545
876,해모로아파트-번3동(지하2층~지하3층),"서울특별시 강북구 오현로 156-0 (번동, 해모로아파트)",37.62624841,127.0368827
877,미성빌딩-미아동(지하1층 ~ 지하 2층),"서울특별시 강북구 도봉로 188, 미성빌딩 (미아동)",37.62559152,127.0266885
878,풍양빌딩(송중동)(지하1~3층),"서울특별시 강북구 도봉로 136, 풍양빌딩 (미아동)",37.62103548,127.0284777
879,무등양말빌딩(송중동)(지하2층),"서울특별시 강북구 도봉로 132 (미아동, 엠디시빌딩)",37.62079122,127.028604
880,강북구청(지하1층)-수유3동,"서울특별시 강북구 도봉로89길 13 (수유동, 강북구청)",37.63933046,127.0256587
881,수유역(지하1층)-수유3동,"서울특별시 강북구 도봉로 지하 338 (수유동, 수유역)",37.63796573,127.025593
882,현대크리스탈(지하1~2층)-수유3동,"서울특별시 강북구 노해로8길 29 (수유동, 현대크리스탈)",37.6384285,127.0242773
883,효성인텔리언빌딩(지하2층)-수유3동,"서울특별시 강북구 도봉로 313 (수유동, 효성인텔리안오피스텔)",37.6364641,127.0235172
884,성실교회(지하2~3층 주차장)-수유3동,"서울특별시 강북구 노해로 50 (수유동, 성실교회)",37.64000339,127.0227884
885,미아역-미아동(지하1층~2층),"서울특별시 강북구 도봉로 지하198, 미아역 (미아동)",37.62634232,127.0261688
886,두원프라자아파트 지하 3~5층 주차장 - 송천동,"서울특별시 강북구 도봉로 157 (미아동, 두원프라자)",37.62275923,127.0270023
887,금호어울림아파트 주차장(102동 지하2층)-번2동,서울특별시 강북구 오현로31길 85-7 (번동),37.6314275,127.036372
888,오동공원 현대홈타운 아파트(지하2층)-번2동,서울특별시 강북구 오현로31길 89 (번동),37.63178338,127.0361656
889,미아사거리역(송중동)(지하1층),서울특별시 강북구 도봉로 48 (미아동),37.6132098,127.0303071
890,벽산아파트(지하1층 주차장) (수유2동),"서울특별시 강북구 삼각산로 143-1 (수유동, 수유벽산아파트)",37.64129608,127.0202174
891,"현대아파트(지하2, 3층 주차장) (수유2동)",서울특별시 강북구 한천로 1131 (수유동),37.64556078,127.0187353
892,"래미안수유아파트(지하2, 3층 주차장) (수유2동)","서울특별시 강북구 한천로159길 8 (수유동, 래미안수유아파트)",37.64465121,127.0194086
893,"삼호아파트(수유프라자) 지하2,3층 주차장 (수유1동)","서울특별시 강북구 도봉로 261 (수유동, 삼호아파트, 수유프라자)",37.63170287,127.0237602
894,대림쇼핑아파트(수유주상복합) 지하2층 주차장(수유1동),"서울특별시 강북구 도봉로71가길 11 (수유동, 수유대림쇼핑아파트)",37.63180007,127.0223209
895,현대성우아파트 지하 2~4 층 주차장 - 송천동,"서울특별시 강북구 삼양로24길 19 (미아동, 현대성우아파트)",37.61706362,127.0222031
896,우이동 푸르지오 아파트(지하2층) - 우이동,"서울특별시 강북구 삼양로149길 45(우이동, 대우아파트)",37.65494176,127.0116955
898,한일유엔아이아파트(송중동)(지하1~2층),"서울특별시 강북구 월계로21가길 41 (미아동, 미아한일유앤아이)",37.61538154,127.0371431
899,경남아너스빌아파트(송중동)(지하3~4층),"서울특별시 강북구 오패산로30길 30 (미아동, 경남아너스빌)",37.61484808,127.0351823
900,대한병원-인수동(지하1층),"서울특별시 강북구 도봉로 301 (수유동, 대한병원)",37.63540191,127.0227836
901,"수유동 이테크벨리오피스텔 지하2,3층 주차장-수유1동","서울특별시 강북구 도봉로77길 6 (수유동, 수유동 이테크밸리 오피스텔)",37.6337033,127.0229105
902,삼양동벽산아파트 101동 P1 주차장(지하2층~4층),"서울특별시 강북구 솔샘로 159, 101동 지하2층 (미아동, 벽산라이브파크)",37.61982226,127.0101719
903,기산그린아파트-번3동(지하1층),"서울특별시 강북구 월계로37길 137-0 (번동, 기산그린아파트)",37.62799368,127.0438018
904,동문아파트-번3동(지하2층),"서울특별시 강북구 오현로 128 (번동, 번동동문아파트)",37.62378911,127.0377477
905,솔그린아파트(지하 2층) (번3동),"서울특별시 강북구 한천로109길 83 (번동, 솔그린아파트)",37.62676914,127.0397736
907,신원아파트-번3동(지하2층),"서울특별시 강북구 월계로37길 87-9 (번동, 신원아파트)",37.62584632,127.0437712
908,수유일공원 주차장-수유1동(지하 1층),"서울특별시 강북구 삼양로79길 5 (수유동, 삼각산공원공영주차장)",37.63070972,127.0174193
909,파스칼진 빌딩 지하2층 주차장(번1동),"서울특별시 강북구 덕릉로 113 (번동, 파스칼진빌딩)",37.63504682,127.02636
910,포르텔오피스텔 지하2층 주차장(번1동),서울특별시 강북구 한천로 1003 (번동),37.63778536,127.02956
911,수유역두산위브아파트1 지하1층 주차장(번1동),"서울특별시 강북구 덕릉로41길 12 (번동, 수유역 두산위브 아파트 1)",37.63580935,127.0314364
912,수유역두산위브아파트2 지하1층 주차장(번1동),"서울특별시 강북구 덕릉로41길 15 (번동, 수유역 두산위브 아파트 2)",37.63590348,127.0311368
913,롯데백화점(송중동)(지하3~6층),"서울특별시 강북구 도봉로 62 (미아동, 롯데백화점)",37.61451936,127.030291
914,삼양동 삼성레미안아파트 주차장 지하2층,"서울특별시 강북구 삼양로 256 (미아동, 래미안미아1차아파트)",37.62620088,127.018633
915,래미안 트리베라1차 아파트 주차장(삼각산동)(지하3층),"서울특별시 강북구 삼양로19길 25 (미아동, 삼성래미안트리베라1차아파트)",37.61468775,127.0206078
916,래미안 트리베라2차 아파트(삼각산동)(지하3층),서울특별시 강북구 삼양로27길 19 (미아동),37.61864171,127.0201314
917,"송천센트레빌 2차 아파트 지하 2, 3층 주차장-송천동","서울특별시 강북구 숭인로 39 (미아동, 송천센트레빌)",37.61253101,127.026061
918,미아요진아파트- 미아동(지하2층),"서울특별시 강북구 도봉로76길 56 (미아동, 미아요진아파트)",37.63372669,127.0266108
919,현대아파트- 미아동(지하1층),"서울특별시 강북구 도봉로68길 26 (미아동, 미아현대아파트)",37.63124707,127.0259274
920,미아신구아파트 - 미아동(지하3층),"서울특별시 강북구 오패산로60길 17 (미아동, 미아신구아파트)",37.62622772,127.0305213
921,포엠빌아파트(지하1층)-수유3동,"서울특별시 강북구 한천로139가길 26 (수유동, 포엠빌아파트)",37.64048856,127.0251029
922,삼양동벽산아파트 102동 P2 주차장(지하2~4층),"서울특별시 강북구 솔샘로 159, 102동 지하2~지하4층 (미아동, 벽산라이브파크)",37.61982226,127.0101719
923,삼양동벽산아파트 104동 P3 주차장(지하2~3층),"서울특별시 강북구 솔샘로 159, 지하2~지하4층 (미아동, 벽산라이브파크)",37.61982226,127.0101719
924,삼양동벽산아파트 107동 P4 주차장(지하2~3층),"서울특별시 강북구 솔샘로 159, 지하2~지하3층 (미아동, 벽산라이브파크)",37.61982226,127.0101719
926,삼양동벽산아파트 109동 P5 주차장(지하2~3층),"서울특별시 강북구 솔샘로 159, 109동 지하2~지하3층 (미아동, 벽산라이브파크)",37.61982226,127.0101719
927,삼양동벽산아파트 112동 P7 주차장(지하2 ~ 3층),"서울특별시 강북구 솔샘로 159, 112동 지하2~지하3층 (미아동, 벽산라이브파크)",37.61982226,127.0101719
929,삼양동벽산아파트 115동  P9 주차장(지하3층),"서울특별시 강북구 솔샘로 159, 115동 지하2~지하3층 (미아동, 벽산라이브파크)",37.61982226,127.0101719
930,삼양동 벽산아파트 118동 P10 주차장(지하3층),"서울특별시 강북구 솔샘로 159 (미아동, 벽산라이브파크)",37.61982226,127.0101719
931,삼양동 벽산아파트 201동 주차장(지하3~4층),"서울특별시 강북구 솔샘로 159, 201동 지하3~지하4층 (미아동, 벽산라이브파크)",37.61982226,127.0101719
932,삼양동 경남아너스빌아파트 주차장(지하2층),서울특별시 강북구 삼양로74길 8 (미아동),37.62937923,127.0184372
933,우리들병원(지하1층~2층 주차장)-수유3동,"서울특별시 강북구 한천로 1083 (수유동, 광산타워)",37.64265704,127.0227399
935,우암센스뷰(지하2층) (수유3동),"서울특별시 강북구 노해로8길 16 (수유동, 우암쎈스뷰)",37.63793035,127.0238339
936,경남아너스빌(지하2층 ~ 4층)-수유3동,"서울특별시 강북구 노해로8길 22 (수유동, 경남아너스빌)",37.63815289,127.0240449
937,두산위브트레지움아파트(삼각산동)(지하2~3층),"서울특별시 강북구 삼양로27길 95 (미아동, 두산위브트레지움아파트)",37.6185764,127.0161166
938,"삼각산아이원아파트 주차장(109,111,112-지하2)","서울특별시 강북구 삼양로19길 113 (미아동, 삼각산아이원아파트)",37.61608363,127.0171302
940,"SK북한산시티아파트(P201, 102동)(지하3~5층)","서울특별시 강북구 솔샘로 174 (미아동, SK북한산시티아파트)",37.61993122,127.012107
941,"SK북한산시티아파트(P205, 122동)(지하3층)","서울특별시 강북구 솔샘로 174 (미아동, SK북한산시티아파트)",37.61993122,127.012107
942,"SK북한산시티아파트(P206, 129동)(지하2층)","서울특별시 강북구 솔샘로 174 (미아동, SK북한산시티아파트)",37.61993122,127.012107
943,"SK북한산시티아파트(P209, 140동)(지하3층)","서울특별시 강북구 솔샘로 174 (미아동, SK북한산시티아파트)",37.61993122,127.012107
945,"SK북한산시티아파트(P211, 147동)(지하2~3층)","서울특별시 강북구 솔샘로 174 (미아동, SK북한산시티아파트)",37.61993122,127.012107
947,"제네스타워빌딩 지하2,3층 주차장-수유1동","서울특별시 강북구 덕릉로 82 (수유동, 제네스타워)",37.63449439,127.0227098
949,미아동복합청사-미아동(지하1층),"서울특별시 강북구 솔매로49길 14 (미아동, 미아동 복합청사, 미아문화정보도서관)",37.62706751,127.0267717
950,트레지오(송중동)(지하2~5층),"서울특별시 강북구 도봉로 34 (미아동, 트레지오빌딩)",37.61204003,127.0305585
951,형인휴아름아파트(지하1층)-수유3동,"서울특별시 강북구 수유로23길 48 (수유동, 형인휴아름)",37.63842381,127.0221173
952,래미안수유아파트107동(지하2층 주차장) (수유2동),"서울특별시 강북구 한천로159길 8 (수유동, 래미안수유아파트)",37.64465121,127.0194086
953,수유벽산아파트201(지하1층)-수유2동,"서울특별시 강북구 삼각산로 143-1 (수유동, 수유벽산아파트)",37.64129608,127.0202174
954,꿈의숲롯데캐슬아파트(송중동)(지하1~3층),"서울특별시 강북구 오현로 56 (미아동, 꿈의숲롯데캐슬)",37.61750449,127.0356591
955,수송초등학교(지하2층 주차장) (번1동),"서울특별시 강북구 한천로124길 14 (번동, 수송초등학교)",37.63715476,127.032713
956,꿈의숲 효성해링턴플레이스 아파트(송중동)(지하1~3층),"서울특별시 강북구 오현로 45 (미아동, 꿈의숲 효성해링턴플레이스)",37.6171511,127.0349347
958,효성네오인텔리안(지하2~6층 주차장)(번1동),"서울특별시 강북구 도봉로 352(번동, 효성네오인텔리안)",37.63881147,127.0268745
962,"SK북한산시티아파트(P202, 107동)(지하2~3층)","서울특별시 강북구 솔샘로 174 (미아동, SK북한산시티아파트)",37.61993122,127.012107
963,"SK북한산시티아파트(P203, 113동)(지하2~3층)","서울특별시 강북구 솔샘로 174, 113동 (미아동, SK북한산시티아파트)",37.61993122,127.012107
964,"SK북한산시티아파트(P207, 135동)(지하3층)","서울특별시 강북구 솔샘로 174, 135동 (미아동, SK북한산시티아파트)",37.61993122,127.012107
966,신동아 2동 아파트 지하주차장 1층,"서울특별시 도봉구 방학로 193, 2동 (방학동, 신동아1단지아파트)",37.66191671,127.0305187
968,신동아 13동 아파트 지하주차장 1층,"서울특별시 도봉구 방학로 193, 13동 (방학동, 신동아1단지아파트)",37.66191671,127.0305187
969,신동아 28동 아파트 지하주차장 1층,"서울특별시 도봉구 시루봉로 107 (방학동, 신동아1단지아파트)",37.66043293,127.0275654
971,신동아 17동 아파트 지하주차장 1층,"서울특별시 도봉구 방학로 193, 17동 (방학동, 신동아1단지아파트)",37.66191671,127.0305187
972,신동아 30동 아파트 지하주차장 1층,"서울특별시 도봉구 시루봉로 107 (방학동, 신동아1단지아파트)",37.66043293,127.0275654
973,한일병원 지하 1층,"서울특별시 도봉구 우이천로 308 (쌍문동, 한일병원)",37.64496761,127.028507
974,금용아파트(쌍문) 지하주차장 1층,"서울특별시 도봉구 노해로 170-0 (쌍문동, 금용아파트)",37.64950498,127.0279074
978,방학 극동아파트 지하 주차장 1~2층,"서울특별시 도봉구 시루봉로11길 25-5 (방학동, 극동아파트)",37.66440513,127.0270064
980,한양7차아파트 지하 주차장 1층,"서울특별시 도봉구 해등로25길 41 (쌍문동, 한양7차아파트)",37.65608707,127.0332155
981,쌍문4동 현대2차아파트 지하주차장 1층,"서울특별시 도봉구 시루봉로6길 53 (쌍문동, 현대2차아파트)",37.65903051,127.0303784
982,거성학마을아파트 지하주차장 1층,"서울특별시 도봉구 도당로 116 (방학동, 거성학마을아파트)",37.66697755,127.0393278
983,백상빌딩 지하주차장 1층,서울특별시 도봉구 노해로 397-15 (창동),37.65343394,127.0518993
984,신동아2단지아파트 지하 주차장 1층,"서울특별시 도봉구 방학로15길 40 (방학동, 신동아아파트)",37.65969661,127.0243814
985,청구아파트 지하주차장 1층,"서울특별시 도봉구 시루봉로 71 (방학동, 청구아파트)",37.65711744,127.0277182
986,우성1차아파트 지하주차장 1층~2층,"서울특별시 도봉구 해등로 286-5 (방학동, 우성1차아파트)",37.65786133,127.0247373
987,우성2차아파트 지하주차장 1층~2층,"서울특별시 도봉구 해등로 307 (방학동, 우성2차아파트)",37.6573189,127.0223269
988,벽산아파트 지하주차장 1층~3층,"서울특별시 도봉구 시루봉로5길 48 (방학동, 벽산아파트)",37.65848083,127.025138
989,삼성 레미안아파트(창1동) 지하주차장 1층,"서울특별시 도봉구 노해로66길 21 (창동, 삼성아파트)",37.65026477,127.0472362
990,"한화,성원아파트(방학3동) 지하주차장 1층~2층","서울특별시 도봉구 방학로11길 10 (방학동, 한화아파트)",37.66170068,127.0319058
991,신동아4단지아파트 지하주차장 1층,"서울특별시 도봉구 방학로 200 (방학동, 신동아아파트)",37.66229206,127.0299264
992,현대 3차아파트(쌍문1동) 지하주차장 1층,서울특별시 도봉구 우이천로38가길 32-0 (쌍문동),37.65141101,127.0215268
993,북부교육청 지하 주차장 1층,"서울특별시 도봉구 노해로 313 (창동, 북부교육청)",37.65168338,127.043252
994,금용아파트(창동) 지하주차장 1층~2층,"서울특별시 도봉구 우이천로 200 (창동, 창동금용아파트)",37.63767132,127.0359683
995,신원에벤에셀아파트 지하주차장 1층,"서울특별시 도봉구 해등로 255 (쌍문동, 에벤에셀아파트)",37.65758036,127.0282208
996,미라보아파트 지하주차장 1층,"서울특별시 도봉구 시루봉로2길 62 (쌍문동, 쌍문미라보아파트)",37.65544585,127.0314859
997,쌍문 극동아파트 지하주차장 1층,"서울특별시 도봉구 노해로45길 26 (쌍문동, 쌍문극동아파트)",37.65069912,127.0266877
998,염광아파트 지하주차장 1층,"서울특별시 도봉구 우이천로30길 28 (쌍문동, 염광아파트)",37.64862432,127.0261892
999,동아그린아파트(창5동) 지하주차장 1층,"서울특별시 도봉구 노해로63다길 34 (창동, 동아그린아파트)",37.65435887,127.0461644
1000,대우아파트 지하주차장 1층~2층,"서울특별시 도봉구 덕릉로63가길 43 (창동, 창동대우아파트)",37.64301429,127.0380471
1001,성원(방학1동) 101동 아파트 지하주차장 1층,"서울특별시 도봉구 방학로7길 16 (방학동, 성원아파트)",37.66195719,127.0362
1002,성원(방학1동) 102동 아파트 지하주차장 1층,"서울특별시 도봉구 방학로7길 15 (방학동, 성원아파트)",37.6619532,127.036344
1003,방학동 도깨비시장 지하주차장 1층~2층,"서울특별시 도봉구 방학로10길 51 (방학동, 방학동도깨비시장주차장)",37.66444168,127.0340412
1004,방아골종합사회복지관 지하주차장 1~2층,"서울특별시 도봉구 시루봉로17길 42 (방학동, 도봉방아골종합사회복지관)",37.66924964,127.032622
1005,도봉한신아파트 지하주차장 1층~3층,"서울특별시 도봉구 도봉로180나길 41 (도봉동, 도봉한신아파트)",37.68433602,127.0497675
1006,신동아타워상가아파트 지하주차장 1층~2층,"서울특별시 도봉구 방학로 210 (방학동, 신동아타워아파트)",37.66209139,127.028877
1007,쌍문역 지하1층,"서울특별시 도봉구 도봉로 지하 486-1 (창동, 쌍문역)",37.64885394,127.0349019
1008,신동아5단지아파트 지하주차장 1층~2층,"서울특별시 도봉구 방학로12길 53 (방학동, 신동아아파트)",37.66358728,127.0287382
1009,동아청솔아파트 지하주차장 1층~2층,서울특별시 도봉구 노해로69길 103 (창동),37.65702855,127.0493995
1010,쌍용아파트 지하주차장 1층,서울특별시 도봉구 마들로 551 (창동),37.66029216,127.0490876
1011,대우파크빌 지하주차장 1층,"서울특별시 도봉구 시루봉로2길 80 (쌍문동, 대우파크빌라)",37.65540336,127.0324414
1012,방학지하차보도 지하1층,"서울특별시 도봉구 노해로63가길 229, 방학지하차보도(방학신화하니엘시티 옆) (방학동)",37.6625129,127.0444346
1013,신창아파트 지하주차장 1층~2층,"서울특별시 도봉구 덕릉로62길 13 (창동, 신창아파트)",37.64064381,127.0409735
1014,현대아파트(창5동) 지하주차장 1층,"서울특별시 도봉구 해등로16길 12 (창동, 현대아파트)",37.65610713,127.0408563
1016,대상타운현대아파트(방학1동) 지하주차장 1층~2층,"서울특별시 도봉구 마들로 616 (방학동, 대상타운현대아파트)",37.66513041,127.0465958
1017,효성하이타운아파트 지하주차장 1층~2층,"서울특별시 도봉구 방학로11길 33 (방학동, 효성하이타운)",37.66106678,127.0329906
1018,한양6차아파트 지하주차장 1층,"서울특별시 도봉구 시루봉로 58 (쌍문동, 한양6차아파트)",37.65596034,127.0280315
1019,건영아파트 지하주차장 1층~2층,"서울특별시 도봉구 우이천로20길 7 (창동, 건영캐스빌아파트)",37.64095702,127.0340726
1020,창동한신아파트 지하주차장 1층~2층,"서울특별시 도봉구 도봉로110다길 5 (창동, 창동 한신아파트)",37.64588575,127.0342287
1021,삼성래미안1단지(방학1동) 아파트 지하주차장 1층~2층,서울특별시 도봉구 마들로 646 (방학동),37.66773626,127.0463321
1022,삼성래미안2단지(방학1동) 아파트 지하주차장 1층~2층,서울특별시 도봉구 도봉로150길 42 (방학동),37.66589711,127.0455586
1023,엘지트윈빌상가 지하주차장 1층,"서울특별시 도봉구 도당로 10 (쌍문동, 쌍문동LG트윈빌1)",37.6591014,127.0352435
1024,이수아파트 지하주차장 1층~2층,"서울특별시 도봉구 도봉로146길 36 (방학동, 브라운스톤방학아파트)",37.66417617,127.0448416
1025,도봉구청 지하주차장 1층~2층,서울특별시 도봉구 마들로 656 (방학동),37.66870173,127.0470068
1026,현대4차 아파트(창4동) 지하주차장 1층~2층,서울특별시 도봉구 노해로69가길 54,37.65857253,127.0468706
1027,삼성래미안아파트(쌍문3동) 지하주차장 1층,"서울특별시 도봉구 우이천로 328 (쌍문동, 쌍문동삼성래미안)",37.64627002,127.0270324
1028,신일라이프 아파트 지하주차장 1층,"서울특별시 도봉구 노해로 184-9 (쌍문동, 신일라이프아파트)",37.65043998,127.0293138
1030,동아에코빌아파트 지하주차장 1층~2층,"서울특별시 도봉구 도봉로180길 6-25 (도봉동, 동아에코빌아파트)",37.68221022,127.046344
1031,신원2차아파트 지하주차장 1층,"서울특별시 도봉구 해등로 190 (쌍문동, 신원주상복합2차아파트)",37.65809596,127.0356671
1032,현대2차 아파트(창4동) 지하주차장 1층~2층,서울특별시 도봉구 도봉로136길 111 (창동),37.66051512,127.0467339
1033,현대3차 아파트(창4동) 지하주차장 1층~2층,"서울특별시 도봉구 도봉로136길 111 (창동, 창동2,3차현대아파트)",37.66051512,127.0467339
1034,럭키아파트 지하주차장 1층,"서울특별시 도봉구 도봉로169길 31 (도봉동, 럭키아파트)",37.67991038,127.0439471
1037,성원(창4동) 아파트 지하주차장 1층~2층,서울특별시 도봉구 마들로16길 56,37.66093499,127.0498524
1039,쌍문e편한세상 아파트 지하주차장 1층,"서울특별시 도봉구 노해로41가길 16 (쌍문동, 쌍문e-편한세상)",37.65002551,127.0270963
1040,북한산월드메르디앙 아파트 지하주차장 1층,"서울특별시 도봉구 삼양로 566 (쌍문동, 북한산월드메르디앙)",37.65354372,127.0129572
1041,방학동 동부센트레빌아파트 지하주차장 1층~2층,"서울특별시 도봉구 방학로 120 (방학동, 방학동부센트레빌)",37.66304185,127.0389902
1042,금광포란재아파트 지하주차장 1층~2층,서울특별시 도봉구 도봉로150바길 26 (방학동),37.66481967,127.0452506
1043,북한산아이파크아파트 지하주차장 1층~2층,"서울특별시 도봉구 도봉로136길 28 (창동, 북한산 아이파크)",37.65906054,127.0427411
1044,삼성 래미안아파트(도봉2동) 지하주차장 1층~2층,"서울특별시 도봉구 도봉로170길 40 (도봉동, 래미안도봉아파트)",37.67986697,127.0475957
1045,도봉파크빌2단지아파트 지하주차장 1층~2층,"서울특별시 도봉구 마들로 835 (도봉동, 도봉파크빌2단지)",37.68406759,127.0511569
1046,도봉파크빌3단지아파트 지하주차장 1층~2층,"서울특별시 도봉구 마들로 895 (도봉동, 도봉파크빌3단지아파트)",37.68798438,127.0481054
1047,대우파크힐아파트 지하주차장 1층,"서울특별시 도봉구 시루봉로 8 (쌍문동, 대우파크힐아파트)",37.65145699,127.0286197
1049,한승미메이드아파트 지하주차장 1층,"서울특별시 도봉구 덕릉로60길 164-13 (창동, 창동한승미메이드아파트)",37.63308703,127.0427202
1050,초안산신도브래뉴아파트(창3동) 지하주차장 1층,"서울특별시 도봉구 우이천로4라길 11-14 (창동, 초안산신도브래뉴)",37.633617,127.042391
1051,동도센트리움아파트 지하주차장 1층~2층,서울특별시 도봉구 마들로 579-19 (창동),37.66195379,127.0454605
1052,서울북부지방법원 지하주차장 1층,"서울특별시 도봉구 마들로 749 (도봉동, 서울북부지방법원)",37.67732126,127.0472035
1053,쌍문브라운스톤아파트 지하주차장 1층,"서울특별시 도봉구 노해로40길 71-0 (쌍문동, 브라운스톤쌍문)",37.64706425,127.0299376
1054,동양크레오 아파트 지하주차장 1층~2층,"서울특별시 도봉구 시루봉로 166 (방학동, 동양크레오아파트)",37.66483468,127.0298755
1055,방학동 ESA1단지 아파트 지하주차장 1층~3층,서울특별시 도봉구 마들로 657 (방학동),37.66890101,127.0459766
1056,방학동 ESA2단지 아파트 지하주차장 1층~3층,서울특별시 도봉구 도봉로150길 43 (방학동),37.66614498,127.045638
1057,방학동 ESA3단지아파트 지하주차장 1층~3층,서울특별시 도봉구 도봉로150길 31 (방학동),37.66615419,127.045001
1058,서울북부지방검찰청 지하주차장 1층,"서울특별시 도봉구 마들로 747 (도봉동, 서울북부지방검찰청)",37.6766557,127.0481839
1059,북한산코오롱하늘채아파트 지하주차장 1층,"서울특별시 도봉구 우이천로 367 (쌍문동, 북한산코오롱하늘채아파트)",37.64854489,127.023409
1060,송학 휴스테이 아파트 지하주차장 1층,"서울특별시 도봉구 도당로15길 36 (방학동, 송학휴스테이)",37.66693305,127.0358722
1061,녹천지하차도 지하1층,"서울특별시 도봉구 덕릉로 376, 녹천지하차보도 (창동)",37.64585273,127.0507628
1062,도봉한양수자인아파트 지하주차장 1층~3층,"서울특별시 도봉구 마들로 724 (도봉동, 도봉한양수자인)",37.67456568,127.0477214
1063,창동지하보도 지하 1층,"서울특별시 도봉구 노해로67길 26, 창동지하보도 (창동)",37.65178326,127.0490578
1064,가인지하보도 지하1층,"서울특별시 도봉구 도봉로136길 61, 가인지하차보도 (창동)",37.65963738,127.0445646
1065,도봉산리베니움 지하주차장 1층,"서울특별시 도봉구 도봉로181길 74-30 (도봉동, 도봉산 리베니움 아파트)",37.68574984,127.0428716
1066,도봉산역 광역환승센터 지하주차장 1층~2층,서울특별시 도봉구 도봉산4나길 43 (도봉동),37.68875694,127.0444236
1067,창제2동 제4공영주차장 지하1층,"서울특별시 도봉구 덕릉로59길 64, 창제2동 제4공영주차장(창동가스 맞은편) (창동)",37.6416731,127.0363208
1068,쌍문금강아미움파크타운 지하주차장 1층~3층,"서울특별시 도봉구 방학로5길 33 (쌍문동, 금강아미움파크타운)",37.66128584,127.0378922
1069,에덴아파트 지하주차장 1층,"서울특별시 도봉구 도봉로137길 31 (쌍문동, 에덴아파트)",37.66036921,127.0397959
1070,창동신도브래뉴아파트(창5동) 지하주차장 1층~2층,"서울특별시 도봉구 도봉로136나길 40 (창동, 창동신도브래뉴1차아파트)",37.65669119,127.0446147
1071,창동대동아파트 지하주차장 1층~2층,"서울특별시 도봉구 도봉로 642-30 (창동, 대동아파트)",37.66193086,127.044086
1072,성우현대아파트(도봉2동) 지하주차장 1층~2층,"서울특별시 도봉구 마들로 735-8 (도봉동, 현대성우아파트)",37.67601567,127.0474894
1073,도봉중흥S클래스 지하주차장 1층,"서울특별시 도봉구 도봉로180가길 32 (도봉동, 중흥에스 클래스)",37.68485791,127.0466077
1074,도봉투웨니퍼스트1단지 지하주차장 1층,"서울특별시 도봉구 도봉로180길 20, 도봉투웨니퍼스트1단지 (도봉동)",37.68303424,127.0471684
1075,도봉투웨니퍼스트2단지 지하주차장 1층,"서울특별시 도봉구 도봉로180길 28, 도봉투웨니퍼스트2단지 (도봉동)",37.68293043,127.0475774
1076,창제3동 제1공영주차장 지하1층,"서울특별시 도봉구 우이천로4길 24-11, 창제3동 제1공영주차장 (창동)",37.63315701,127.0411205
1078,에드가 쌍문 아파트 지하주차장 1~2층,"서울특별시 도봉구 삼양로 602 (쌍문동, 에드가쌍문)",37.6566048,127.0136448
1079,창동 데시앙 아파트 지하주차장 1~2층,"서울특별시 도봉구 도봉로110다길 51 (창동, 태영창동데시앙)",37.64398727,127.033182
1080,씨드큐브 창동 지하주차장 1층~7층,"서울특별시 도봉구 마들로13길 61, 씨드큐브 창동 (창동)",37.65440681,127.0497957
1081,경기기계공업고등학교 지하1층 창고,서울특별시 노원구 공릉로 264 (경기기계공업고등학교),37.63126873,127.0736597
1082,혜성여자고등학교 지하1층 동아리실,"서울특별시 노원구 노원로16길 2 (하계동, 혜성여자고등학교)",37.64161929,127.0727406
1083,대진고등학교 지하1층 창고,"서울특별시 노원구 공릉로62가길 47 (하계동, 대진고등학교)",37.63725465,127.0747565
1084,상계5동주민센터 지하1층,"서울특별시 노원구 한글비석로 434 (상계동, 상계5동주민센터)",37.66282635,127.0692749
1085,한신1차아파트 지하1층,"서울특별시 노원구 한글비석로46가길 16 (상계동, 한신1차아파트)",37.66544226,127.0681224
1087,현대우성아파트 상가 지하1층,"서울특별시 노원구 섬밭로 232 (하계동, 현대아파트,우성아파트)",37.63673268,127.0654908
1088,상록스토아 지하1층,서울특별시 노원구 동일로227길 26 (상계동),37.66720731,127.0555621
1089,한신2차아파트 지하1층,"서울특별시 노원구 한글비석로48길 6 (상계동, 한신2차아파트)",37.66445946,127.0676219
1090,상계주공아파트 12단지 관리동 지하1층,"서울특별시 노원구 한글비석로 530 (상계동, 상계주공12단지아파트)",37.66488538,127.0592278
1091,보람아파트 관리소 지하1층,"서울특별시 노원구 한글비석로 479 (상계동, 보람아파트1단지)",37.66453602,127.0646947
1092,상계주공아파트 12단지 종합상가 지하1층,"서울특별시 노원구 동일로 1538 (상계동, 12단지 종합상가)",37.66586227,127.0577731
1093,보람상가 지하1층,"서울특별시 노원구 한글비석로 474 (상계동, 보람아파트2단지)",37.6646846,127.0654483
1094,청원중학교 지하1층,"서울특별시 노원구 한글비석로 506 (상계동, 청원초,청원중,청원고,청원여고)",37.66532871,127.0619625
1095,청원초등학교 지하1층,"서울특별시 노원구 한글비석로 506 (상계동, 청원초,청원중,청원고,청원여고)",37.66532871,127.0619625
1096,청원고등학교 청원관 지하1층,"서울특별시 노원구 한글비석로 506 (상계동, 청원초,청원중,청원고,청원여고)",37.66532871,127.0619625
1097,상계8동 주공16단지 지하1층 헬스장,서울특별시 노원구 동일로227길 86 (상계동),37.66719284,127.0521697
1099,롯데상가 지하1층,"서울특별시 노원구 섬밭로 263 (중계동, 롯데상가)",37.63930911,127.0637791
1100,하계장미6단지아파트 종합상가 지하1층,"서울특별시 노원구 섬밭로 196 (하계동, 장미아파트)",37.63368912,127.0667845
1101,하계2동주민센터 지하1층,"서울특별시 노원구 공릉로55길 88 (하계동, 하계2동 주민센터)",37.63198534,127.0679125
1102,상계9동 주민센터 지하1층,"서울특별시 노원구 한글비석로 487 (상계동, 상계9동주민센터)",37.66456672,127.0638412
1103,상계8동 주민센터 지하1층,"서울특별시 노원구 동일로227길 97 (상계동, 상계8동주민센터)",37.66679273,127.0514954
1104,벽산아파트108동상가 지하1층,"서울특별시 노원구 한글비석로 396 (상계동, 벽산아파트)",37.66047265,127.0722064
1105,벽산아파트109동상가 지하1층,"서울특별시 노원구 한글비석로 396, 109동 (상계동, 벽산아파트)",37.66047265,127.0722064
1106,창동차량기지사무소 지하1층,서울특별시 노원구 노원로 573 (상계동),37.65818015,127.0552067
1107,창동차량기지 후생관 지하1층,서울특별시 노원구 노원로 573 (상계동),37.65818015,127.0552067
1108,용화여고 지하1층,"서울특별시 노원구 동일로 1461 (상계동, 용화여자고등학교)",37.65889607,127.0590747
1109,도봉면허시험장 지하1층,"서울특별시 노원구 동일로 1449 (상계동, 도봉운전면허시험장)",37.65793925,127.0593339
1110,위성프라자 지하2층,"서울특별시 노원구 상계로 55 (상계동, 위성프라자)",37.65598929,127.0611822
1111,노원프라자 주차장 지하2층,"서울특별시 노원구 상계로 51 (상계동, 노원프라자빌딩)",37.65590119,127.0607852
1112,노원구 구민의전당 지하1층,"서울특별시 노원구 동일로 1229 (중계동, 노원구민회관)",37.6390176,127.0665728
1113,대진여자고등학교 지하1층,"서울특별시 노원구 공릉로 438 (중계동, 대진여자고등학교)",37.645394,127.0668138
1114,상계주공아파트 13단지 관리동 지하1층,"서울특별시 노원구 한글비석로54길 92 (상계동, 상계주공13단지아파트)",37.66747451,127.0612525
1115,서진골프연습장 지하1층,"서울특별시 노원구 동일로228길 29 (상계동, 대원유치원)",37.66774093,127.0587423
1116,신한은행 마들역점 지하1층,"서울특별시 노원구 동일로 1546 (상계동, 신한은행)",37.6665273,127.0576042
1117,합동빌딩 주차장 지하2층,서울특별시 노원구 동일로 1529 (상계동),37.66499452,127.057399
1118,주공10단지아파트 지하1층 종합상가,서울특별시 노원구 동일로 1493 (상계동),37.66175593,127.0581938
1119,세이브존 노원점 지하주차장 2층,"서울특별시 노원구 한글비석로 57 (하계동, 세이브존)",37.63650905,127.0686873
1120,중계그린B상가 지하1층,"서울특별시 노원구 동일로 1279, 중계그린아파트 A,B 상가 (중계동)",37.64321431,127.0647214
1121,국민은행 마들역점 지하1층,"서울특별시 노원구 동일로 1534 (상계동, 국민은행)",37.66544627,127.0578453
1122,기업은행 지하1층 주차장,서울특별시 노원구 동일로 1527 (상계동),37.66480821,127.0574778
1123,중계그린아파트 상가 지하1층,"서울특별시 노원구 동일로207길 23, 동은유치원 (중계동)",37.64308772,127.0634477
1124,건영옴니백화점 지하1층,"서울특별시 노원구 섬밭로 258 (중계동, 건영옴니백화점)",37.63886877,127.0643857
1125,정안프라자 지하1층,"서울특별시 노원구 동일로 1308 (중계동, 정안프라자)",37.64587634,127.0641215
1126,중계무지개 아파트상가 지하1층,"서울특별시 노원구 동일로208길 19 (중계동, 중계무지개아파트)",37.64398548,127.0659395
1127,무지개아파트 관리사무소 지하1층,"서울특별시 노원구 동일로208길 20 (중계동, 무지개아파트)",37.643857,127.0659983
1128,평화종합사회복지관 지하1층,"서울특별시 노원구 노원로 331 (중계동, 시영3단지목련아파트)",37.64646561,127.069979
1129,목련아파트 상가 지하1층,"서울특별시 노원구 노원로 333 (중계동, 한양목욕탕)",37.64665461,127.0699052
1130,목화아파트 상가 지하1층,"서울특별시 노원구 노원로19길 31 (중계동, 목화아파트)",37.64432328,127.0692232
1131,농협 지하1층 주차장,서울특별시 노원구 동일로 1553 (상계동),37.6670532,127.0568906
1132,연촌초등학교 지하1층 창고,"서울특별시 노원구 공릉로58길 36 (하계동, 연촌초등학교)",37.63438761,127.0726125
1133,중계본동주민센터 지하 1층 시설,"서울특별시 노원구 중계로 143 (중계동, 중계본동주민센터)",37.6478841,127.0803468
1134,대명프라자 지하 1~3층 주차장,"서울특별시 노원구 한글비석로 254 (중계동, 대명프라자)",37.65036147,127.0769526
1135,2001아울렛 지하1층,"서울특별시 노원구 동일로204가길 46, 2001아울렛 (중계동)",37.64124468,127.0677391
1136,노원을지대학교병원 지하주차장 2~4층,"서울특별시 노원구 한글비석로 68 (하계동, 을지병원)",37.63661486,127.0696932
1137,상명중학교 지하1층,"서울특별시 노원구 덕릉로 553 (중계동, 민정학원)",37.64881369,127.0688065
1138,상명고등학교 지하1층,"서울특별시 노원구 덕릉로 553 (중계동, 민정학원)",37.64881369,127.0688065
1139,상명초등학교 지하1층,"서울특별시 노원구 덕릉로 541, 상명초등학교 (중계동)",37.64789889,127.0678131
1140,"금호프라자 지하3,4층 주차장","서울특별시 노원구 상계로5길 32 (상계동, 금호프라자)",37.65700197,127.0628045
1141,장석교회 지하2층 주차장,"서울특별시 노원구 월계로44길 23 (월계동, 대한예수교장로회장석교회)",37.62396672,127.0514446
1142,홍파복지원 지하1층,"서울특별시 노원구 동일로248길 30 (상계동, 홍파복지관)",37.68047295,127.0564522
1143,시립중계노인전문요양원 지하1층,"서울특별시 노원구 섬밭로 313, 시립중계노인전문요양원 (중계동)",37.64361484,127.0619611
1144,신동아아파트상가 지하1층,"서울특별시 노원구 한글비석로52길 64 (상계동, 신동아아파트)",37.66734305,127.0667879
1145,영빈빌딩 지하2층 주차장,"서울특별시 노원구 상계로3길 28 (상계동, 영빈빌딩)",37.65744895,127.0625189
1146,그랜드프라자 지하 2~3층 주차장,"서울특별시 노원구 한글비석로 264 (중계동, 중계그랜드프라자)",37.6510873,127.0769755
1147,화인상가아파트 지하 1~2층 주차장,"서울특별시 노원구 중계로 160 (중계동, 화인상가아파트)",37.64939436,127.0810866
1148,북부종합사회복지관 지하1층,"서울특별시 노원구 동일로245길 56 (상계동, 북부종합사회복지관)",37.67960024,127.052235
1149,중계역 지하1층,"서울특별시 노원구 동일로 지하 1308-1 (중계동, 중계역)",37.64568593,127.0639769
1150,하계역(지하철 7호선) 지하2층,"서울특별시 노원구 동일로 지하 1196 (하계동, 하계역)",37.63619896,127.0681959
1151,교림노원프라자 지하1층 주차장,"서울특별시 노원구 한글비석로 444 (상계동, 교림노원프라자)",37.66356992,127.0684177
1153,서울아이티고등학교 지하1층,"서울특별시 노원구 섬밭로 299-0 (중계동, 서울아이티고등학교)",37.6423654,127.0624503
1154,마들역 지하1층,"서울특별시 노원구 동일로 지하 1530-1 (상계동, 마들역)",37.66505599,127.0577805
1155,"순복음교회 지하2,3층 주차장","서울특별시 노원구 노원로 440 (상계동, 순복음교회)",37.65592643,127.0671467
1156,삼능스페이스향 지하1~4층 주차장,"서울특별시 노원구 석계로18길 23 (월계동, 삼능스페이스향)",37.62389041,127.0607359
1157,삼호종합상가 지하1층 마트,"서울특별시 노원구 마들로 111 (월계동, 월계미륭아파트,월계삼호아파트)",37.62536225,127.0667185
1158,성원상가 지하1층 체육관,"서울특별시 노원구 마들로3길 37 (월계동, 성원아파트)",37.62905187,127.0626391
1159,미성상가 지하1층 상가,"서울특별시 노원구 마들로 59 (월계동, 월계미성아파트)",37.62119019,127.0692149
1161,월계1동 주민센터 지하1층,"서울특별시 노원구 석계로 59 (월계동, 석산빌딩)",37.6199998,127.0629643
1162,"꽃동산교회 지하2,3층 주차장","서울특별시 노원구 노원로 420 (상계동, 꽃동산교회)",37.65411617,127.0677462
1163,염광아파트 지하1층 주차장,"서울특별시 노원구 덕릉로79길 23-0 (중계동, 염광아파트)",37.65697397,127.0733569
1164,신한은행 노원역지점 지하1층 주차장,"서울특별시 노원구 동일로 1404, 신한은행 (상계동)",37.65399725,127.0609975
1165,기업빌딩 지하2층 주차장,서울특별시 노원구 동일로 1402 (상계동),37.65376532,127.0609685
1166,삼성생명 상계빌딩 지하2층 주차장,"서울특별시 노원구 동일로 1395 (상계동, 상계빌딩)",37.65318528,127.0606128
1167,중앙하이츠아파트 지하 1층 주차장,"서울특별시 노원구 한글비석로14길 37 (중계동, 중앙하이츠아파트)",37.65898502,127.0766856
1168,중계4동주민센터 지하1층,"서울특별시 노원구 덕릉로82길 50 (중계동, 중계4동주민센터)",37.65881498,127.0779171
1169,교보생명빌딩 지하1층 주차장,"서울특별시 노원구 노해로 467, 교보빌딩 (상계동)",37.65433437,127.0598255
1170,수락산역 지하 1~3층,"서울특별시 노원구 동일로 지하 1662 (상계동, 수락산역)",37.67686838,127.0554121
1171,삼천리빌딩 지하1층 주차장,"서울특별시 노원구 동일로241길 36 (상계동, 삼천리)",37.67776135,127.0543915
1172,염광학원 지하1층 주차장,"서울특별시 노원구 월계로45가길 9 (월계동, 염광중,고,메디텍고,유치원)",37.62807564,127.0502304
1174,월계공단 지하1층,"서울특별시 노원구 월계로45길 28 (월계동, 월계아파트형공장)",37.62679427,127.0510116
1175,주공1단지 관리사무소 지하1층,"서울특별시 노원구 초안산로1길 18 (월계동, 월계주공2단지아파트)",37.62847711,127.0539436
1176,주공2단지관리사무소 지하1층,"서울특별시 노원구 초안산로1길 18 (월계동, 월계주공2단지아파트)",37.62847711,127.0539436
1177,유치원상가 지하1층,"서울특별시 노원구 초안산로 19 (월계동, 월계주공2단지아파트)",37.62954816,127.0542479
1178,충은교회 지하1층,"서울특별시 노원구 초안산로3길 41 (월계동, 경륜교회)",37.62961119,127.0521962
1180,주공4단지 상가 지하1층 주차장,"서울특별시 노원구 동일로 1362 (상계동, 상계주공4단지아파트)",37.65032419,127.061967
1181,상계백병원 지하1층 주차장,"서울특별시 노원구 동일로 1342, 상계백병원 (상계동)",37.64857631,127.0627663
1182,성서신학대학 밀알관 지하1층 주차장,"서울특별시 노원구 동일로214길 32, 한국성서대학교 (상계동)",37.64916566,127.0635229
1183,수락파크빌아파트 지하1층 주차장,"서울특별시 노원구 동일로248길 16 (상계동, 수락파크빌아파트)",37.67979615,127.0562493
1184,공릉2동 공릉보건지소 지하 1층,서울특별시 노원구 공릉로 166-1 (공릉동),37.62476111,127.0799122
1185,"공릉2동 화랑대역 지하1,2층",서울특별시 노원구 화랑로 지하 510 (공릉동),37.61993332,127.0838206
1186,공릉2동 평화타운 지하 1~3층,서울특별시 노원구 공릉로46길 3 (공릉동),37.62708009,127.0792272
1187,"공릉2동 태강아파트 지하주차장 1,2층","서울특별시 노원구 공릉로34길 62 (공릉동, 태강아파트)",37.62374912,127.0821586
1188,세양빌딩  지하 1층 주차장,"서울특별시 노원구 덕릉로 669 (중계동, 세양빌딩)",37.65746502,127.0747482
1189,공릉역(지하1~4층),서울특별시 노원구 동일로 지하 1074 (공릉동),37.62586567,127.0729389
1190,불암현대아파트 전체동 지하주차장 B1층~B4층,"서울특별시 노원구 덕릉로118길 29 (상계동, 상계불암현대아파트)",37.66773546,127.0807189
1191,동아불암아파트 전체동 지하주차장 B1층~B3층,"서울특별시 노원구 덕릉로 780 (상계동, 동아불암아파트)",37.66668208,127.0785356
1192,"노원 아이파크 지하2,3층 주차장","서울특별시 노원구 상계로23다길 13-8 (상계동, 노원 아이파크)",37.65958412,127.0691248
1193,상계불암대림아파트 전체동 지하주차장 B1층~B2층,"서울특별시 노원구 덕릉로94길 21 (상계동, 상계불암대림아파트)",37.66249192,127.077314
1194,그랑빌아파트 지하주차장1층,"서울특별시 노원구 마들로 31 (월계동, 그랑빌아파트)",37.61887758,127.0697809
1195,월계현대아파트 지하1~2층 주차장,"서울특별시 노원구 석계로 49 (월계동, 현대아파트)",37.61918223,127.0633505
1196,태웅빌딩 지하3층 주차장,"서울특별시 노원구 노해로 447, 태웅빌딩 (상계동)",37.65389993,127.0577996
1197,"롯데백화점 노원점 지하2,3층 주차장","서울특별시 노원구 동일로 1414 (상계동, 롯데백화점)",37.65494503,127.0607627
1198,공릉2동 주민센터 지하 1층,"서울특별시 노원구 노원로1길 68 (공릉동, 공릉2동청사)",37.62122704,127.0833727
1199,상계1동 주민센터 지하1층,"서울특별시 노원구 동일로 1697 (상계동, 상계1동주민센터)",37.67991633,127.0550433
1200,노원역 7호선 지하1층,"서울특별시 노원구 동일로 지하1409, 노원역 7호선 (상계동)",37.65444012,127.0604802
1201,노원구청 지하1층 주차장,"서울특별시 노원구 노해로 437, 노원구청 (상계동)",37.65361801,127.0567027
1202,대한적십자사 동부혈액원 지하1층 주차장,"서울특별시 노원구 동일로 1329, 대한적십자사 (상계동)",37.64756256,127.0622279
1203,북부장애인복지관 지하1층 강당,"서울특별시 노원구 덕릉로70가길 92, 북부장애인복지관 (상계동)",37.64237565,127.0569196
1204,시립뇌성마비복지관 지하1층 강당,"서울특별시 노원구 덕릉로70가길 96, 서울시립뇌성마비복지관 (상계동)",37.64230232,127.0566666
1205,한국전력공사북부지점 지하1층 주차장,"서울특별시 노원구 노해로 429 (상계동, 한국전력공사 북부지점)",37.65341011,127.0557803
1206,상계6.7동주민센터 지하1층,"서울특별시 노원구 노원로 429, 상계6.7동주민센터 (상계동)",37.65484393,127.0669651
1207,서울시 북부기술 교육원 지하1층 주차장,"서울특별시 노원구 덕릉로70가길 81, 서울특별시북부기술교육원 (상계동)",37.64227006,127.0576532
1208,중계1동주민센터 지하1층,"서울특별시 노원구 한글비석로 279 (중계동, 중계1동주민센터)",37.65257588,127.0775854
1209,청암중고등학교 지하1층,"서울특별시 노원구 중계로 244 (중계동, 청암중고예술학교)",37.6513238,127.0733672
1210,청구아파트 지하1층 주차장,"서울특별시 노원구 중계로 225 (중계동, 청구3차아파트)",37.650536,127.075162
1211,건영아파트 지하1층 주차장,"서울특별시 노원구 노원로22길 71 (중계동, 건영3차아파트)",37.64772862,127.0742217
1212,"마들프라자 지하2, 3층 주차장","서울특별시 노원구 한글비석로 269 (중계동, 마들플라자)",37.6516925,127.0768537
1213,"영광프라자 지하2, 3층 주차장","서울특별시 노원구 한글비석로 265 (중계동, 영광프라자)",37.65154055,127.0766271
1214,"조은빌딩 지하2, 3층 주차장","서울특별시 노원구 중계로 220 (중계동, 조충빌딩)",37.65081757,127.0757448
1215,"세신프라자 지하2, 3층 주차장","서울특별시 노원구 한글비석로 253 (중계동, 세신프라자빌딩)",37.65033117,127.0764678
1216,청구종합상가 지하2층 주차장,"서울특별시 노원구 중계로 225 (중계동, 청구3차아파트)",37.650536,127.075162
1217,태릉입구역(지하1~4층),서울특별시 노원구 동일로 지하 992-1 (공릉동),37.61872774,127.0753622
1218,상계3.4동주민센터 B1층,"서울특별시 노원구 덕릉로 859 (상계동, 상계3.4동주민센터)",37.67277817,127.0832313
1219,월계2동주민센터 지하1층 주차장,"서울특별시 노원구 초안산로5길 28 (월계동, 월계2동주민센터)",37.63242365,127.0507887
1220,월계3동주민센터 지하1층 창고,"서울특별시 노원구 마들로 57-0 (월계동, 월계3동주민센터)",37.62097067,127.069301
1221,하계1동 주민센터 지하 1층 다목적 프로그램실,"서울특별시 노원구 노원로 261 (하계동, 하계1동주민센터)",37.64058863,127.0726485
1222,상계10동 주민센터 지하1층,"서울특별시 노원구 노원로 530 (상계동, 상계10동주민센터)",37.66123795,127.0602496
1223,공릉1동주민센터 지하1층,"서울특별시 노원구 동일로186길 3-24 (공릉동, 공릉1동주민센터)",37.62477809,127.0736846
1224,대주파크빌아파트 지하주차장 지하 1~2층,"서울특별시 노원구 섬밭로 52 (공릉동, 대주파크빌)",37.62144478,127.0719372
1226,롯데케슬루나 지하1층 주차장,"서울특별시 노원구 월계로45길 21 (월계동, 롯데캐슬루나아파트)",37.6264233,127.0510141
1227,공릉2동 현대성우아파트 지하주차장 1~3층,"서울특별시 노원구 공릉로27길 110 (공릉동, 현대성우아파트)",37.62584169,127.0774203
1228,삼성아파트 지하 1~2층 주차장,"서울특별시 노원구 중계로14나길 25 (중계동, 삼성아파트)",37.64878346,127.0826407
1229,양지대림1차아파트 지하1층 주차장,"서울특별시 노원구 덕릉로71길 30 (중계동, 양지대림아파트)",37.65060801,127.0697123
1230,"성원아파트 지하1,2층 주차장","서울특별시 노원구 노원로34길 34 (상계동, 성원아파트)",37.66044552,127.0656646
1231,은빛1단지아파트 지하1층 주차장,"서울특별시 노원구 동일로245길 162 (상계동, 은빛1단지아파트)",37.68229388,127.054256
1232,우남푸르미아 지하1층 주차장,"서울특별시 노원구 초안산로2길 91 (월계동, 월계동 우남푸르미아 아파트)",37.63279487,127.0572522
1233,주공11단지 지하1층 헬스장,"서울특별시 노원구 동일로227길 25 (상계동, 상계주공11단지아파트)",37.66697488,127.0555149
1234,양지대림2차아파트 지하1층 주차장,"서울특별시 노원구 덕릉로73길 28 (중계동, 양지대림아파트)",37.65247277,127.0717515
1235,동원베네스트 지하1층 주차장,서울특별시 노원구 월계로53길 21 (월계동),37.6311715,127.0586362
1236,사슴3단지아파트 303동 지하1층 주차장,"서울특별시 노원구 월계로55길 15 (월계동, 월계사슴3단지아파트)",37.63204098,127.0603336
1237,사슴3단지아파트301동지하1층 주차장,"서울특별시 노원구 월계로55길 15 (월계동, 월계사슴3단지아파트)",37.63204098,127.0603336
1238,건양노블레스지하1층 주차장,"서울특별시 노원구 화랑로45길 42-18 (월계동, 건양노블레스아파트)",37.61712072,127.0661206
1239,중계2.3동 주민센터 지하1층,서울특별시 노원구 노원로17길 56 (중계동),37.642097,127.0687848
1241,수락리버시티4단지 지하1층 주차장,"서울특별시 노원구 누원로 18 (상계동, 수락리버시티4단지)",37.6866125,127.0529339
1242,신동아아파트 지하1층,"서울특별시 노원구 한글비석로52길 66 (상계동, 신동아아파트)",37.66742988,127.0667983
1243,주공10단지 지하1층 헬스장,서울특별시 노원구 노원로 564 (상계동),37.66155415,127.056266
1244,주공14단지이파트 지하1층,"서울특별시 노원구 동일로228길 23 (상계동, 상계주공14단지아파트)",37.66778137,127.058481
1245,삼창아파트 지하1층,"서울특별시 노원구 광운로2가길 22 (월계동, 삼창아파트)",37.61796909,127.0595126
1246,청백1단지아파트 107동 지하1층 주차장,"서울특별시 노원구 초안산로 89 (월계동, 월계청백1단지아파트)",37.63553147,127.0521718
1247,서광아파트지하1층 주차장,"서울특별시 노원구 마들로1길 44 (월계동, 서광아파트)",37.62279427,127.0659238
1248,공릉2동 화랑타운아파트 지하주차장 1층,"서울특별시 노원구 화랑로51길 17 (공릉동, 화랑타운아파트)",37.62394343,127.0893876
1249,한화꿈에그린아파트  지하1~2층 주차장,"서울특별시 노원구 중계로8길 29 (중계동, 한화꿈에그린아파트)",37.64630502,127.0837273
1250,롯데우성아파트101동 지하1층 주차장,"서울특별시 노원구 노원로22길 34 (중계동, 롯데아파트,우성아파트)",37.64754854,127.0721042
1251,롯데우성아파트103동 지하1층 주차장,"서울특별시 노원구 노원로22길 34 (중계동, 롯데아파트,우성아파트)",37.64754854,127.0721042
1252,롯데우성아파트107동 지하1층 주차장,"서울특별시 노원구 노원로22길 34 (중계동, 롯데아파트,우성아파트)",37.64754854,127.0721042
1253,롯데우성아파트109동 지하1층 주차장,"서울특별시 노원구 노원로22길 34 (중계동, 롯데아파트,우성아파트)",37.64754854,127.0721042
1254,경남아너스빌아파트  주차장 지하1층,"서울특별시 노원구 덕릉로94길 10 (중계동, 경남아너스빌)",37.66235397,127.0765999
1255,동양메이저아파트 지하1층 주차장,"서울특별시 노원구 상계로5길 12 (상계동, 동양메이저아파트)",37.65718839,127.0640038
1256,금호타운아파트101동 지하1층,"서울특별시 노원구 한글비석로46나길 10 (상계동, 금호아파트)",37.66688545,127.0691117
1257,금호타운아파트102동 지하1층,"서울특별시 노원구 한글비석로46나길 10 (상계동, 금호아파트)",37.66688545,127.0691117
1258,학여울청구아파트 101동 지하주차장 지하1층,"서울특별시 노원구 동일로207길 186 (하계동, 학여울청구아파트)",37.63712614,127.0611515
1259,학여울청구아파트 102동 지하주차장 지하1층,"서울특별시 노원구 동일로207길 186 (하계동, 학여울청구아파트)",37.63712614,127.0611515
1260,학여울청구아파트 107동 지하주차장 지하1층,"서울특별시 노원구 동일로207길 186 (하계동, 학여울청구아파트)",37.63712614,127.0611515
1261,학여울청구아파트 109동 지하주차장 지하1층,"서울특별시 노원구 동일로207길 186 (하계동, 학여울청구아파트)",37.63712614,127.0611515
1262,성북역신도브래뉴아파트 지하1층 주차장,"서울특별시 노원구 광운로19길 38 (월계동, 성북역신도브래뉴)",37.62266537,127.0587403
1263,월계역신도브래뉴아파트 지하1층 주차장,"서울특별시 노원구 광운로 132 (월계동, 월계역신도브래뉴)",37.62845233,127.0585626
1264,노원문화원 지하1층,서울특별시 노원구 동일로197길 24 (공릉동),37.62871305,127.0698049
1265,청백1단지아파트105동 지하1층 주차장,"서울특별시 노원구 초안산로 89 (월계동, 월계청백1단지아파트)",37.63553147,127.0521718
1266,청백1단지아파트103동 지하1층 주차장,"서울특별시 노원구 초안산로 89 (월계동, 월계청백1단지아파트)",37.63553147,127.0521718
1267,청백1단지아파트 102동 지하1층 주차장,"서울특별시 노원구 초안산로 89 (월계동, 월계청백1단지아파트)",37.63553147,127.0521718
1268,KT노원지사 지하1층 주차장,서울특별시 노원구 노해로 502 (상계동),37.65468634,127.0637885
1269,풍천상가 지하1층 온수골 행복발전소,"서울특별시 노원구 노원로 522 (상계동, 풍천유치원빌딩)",37.66110279,127.0609911
1271,상계2동 공공복합청사 지하1층,"서울특별시 노원구 상계로 118 (상계동, 상계2동복합청사)",37.65755499,127.0678332
1272,광운대학교 지하2~3층 주차장,"서울특별시 노원구 광운로 20 (월계동, 광운대학교)",37.61937969,127.0581205
1273,주공15단지 지하1층 헬스장,"서울특별시 노원구 동일로227길 26 (상계동, 상계주공15단지아파트)",37.66720731,127.0555621
1274,포레나 노원 주차장 지하1~2층,"서울특별시 노원구 노원로38길 76(상계동, 포레나노원)",37.66439357,127.0614587
1275,공릉2동 삼익1차아파트 107동 지하1층 주차장,"서울특별시 노원구 공릉로46길 32 (공릉동, 삼익아파트)",37.62743081,127.0806835
1276,공릉2동 삼익1차아파트 103동 지하1층 주차장,"서울특별시 노원구 공릉로46길 32 (공릉동, 삼익아파트)",37.62743081,127.0806835
1277,공릉2동 태릉해링턴플레이스 지하주차장 1~3층,"서울특별시 노원구 공릉로34길 86 (공릉동, 태릉해링턴플레이스)",37.62508346,127.0818648
1278,은평경찰서 지하1층,"서울특별시 은평구 연서로 365 (불광동, 은평경찰서)",37.62786617,126.9291287
1279,메트로타워 지하주차장 2층~6층,"서울특별시 은평구 통일로 856 (불광동, 메트로타워)",37.61953734,126.9211277
1280,미미아파트(지하1층),"서울특별시 은평구 갈현로29길 11 (갈현동, 미미아파트)",37.6194594,126.9142062
1281,한솔아파트(지하1층),"서울특별시 은평구 갈현로23길 41 (갈현동, 한솔아파트)",37.61854214,126.910245
1282,우남아파트(지하1층),"서울특별시 은평구 서오릉로 258 (갈현동, 우남아파트)",37.61744695,126.9069417
1283,은평구청 보건소 지하1층,"서울특별시 은평구 은평로 195 (녹번동, 은평구종합청사)",37.60217556,126.9293379
1284,은평문화예술회관 지하2층,"서울특별시 은평구 녹번로 16 (녹번동, 은평문화예술회관)",37.60353877,126.9276846
1285,역촌역 6호선 지하1층,"서울특별시 은평구 서오릉로 지하 63 (녹번동, 6호선 역촌역사무소)",37.60604524,126.9229823
1286,불광역 3호선 지하1~2층,"서울특별시 은평구 통일로 지하723-1, 3,6호선 불광역사무소 (대조동)",37.61019595,126.9299846
1287,연신내역 3호선 지하1층,"서울특별시 은평구 통일로 지하 849 (갈현동, 3,6호선 연신내역사무소)",37.61896756,126.9211781
1288,구산역(6호선 3번출구 지하1층),"서울특별시 은평구 연서로 지하 137-1 (구산동, 6호선 구산역사무소)",37.61121599,126.9171698
1289,현재트윈빌아파트(지하1층),"서울특별시 은평구 서오릉로20길 5-10 (갈현동, 현재트윈빌아파트)",37.61632371,126.9085194
1290,연신내역 6호선 지하 2층~3층,"서울특별시 은평구 통일로 지하 849 (갈현동, 3,6호선 연신내역사무소)",37.61896756,126.9211781
1291,독바위역( 6호선) 대합실 지하1층~6층,"서울특별시 은평구 불광로 지하 129-1 (불광동, 6호선 독바위역사무소)",37.61840901,126.9328282
1292,은평병원 지하2층,"서울특별시 은평구 백련산로 90 (응암동, 은평병원)",37.59390971,126.9232505
1293,"응암역 6호선 지하1, 2층","서울특별시 은평구 증산로 지하 477 (역촌동, 6호선 응암역사무소)",37.59875465,126.9154879
1294,"새절역 6호선 지하 1, 2층","서울특별시 은평구 증산로 지하 400 (신사동, 6호선 새절역사무소)",37.59184178,126.9138891
1295,증산역(6호선) 지하 1~2층,"서울특별시 은평구 증산로 지하 306 (증산동, 6호선 증산역사무소)",37.58421654,126.9100346
1296,디지털미디어시티역(6호선) 지하 1~2층,"서울특별시 은평구 수색로 지하 175 (증산동, 6호선 디지털미디어시티역)",37.57739352,126.9022168
1297,불광역 6호선 지하1~4층,"서울특별시 은평구 통일로 지하723-1, 3,6호선 불광역사무소 (대조동)",37.61019595,126.9299846
1298,"갈현현대1차아파트 101동,102동 지하주차장 1층","서울특별시 은평구 갈현로33길 24 (갈현동, 갈현동현대아파트)",37.62154947,126.9141359
1299,코오롱하늘채아파트 지하주차장 1층,"서울특별시 은평구 갈현로29길 62 (갈현동, 코오롱하늘채아파트)",37.62305457,126.9109315
1300,건영아파트 지하주차장 1~2층,"서울특별시 은평구 갈현로45길 57 (갈현동, 갈현동건영아파트)",37.62921895,126.9137956
1301,은평구민체육센터(지하1~2층),"서울특별시 은평구 진관1로 40 (진관동, 은평구민체육센터)",37.63060558,126.9234847
1302,은평노인종합복지관(지하1층),"서울특별시 은평구 연서로 415 (진관동, 은평노인종합복지관)",37.63201412,126.9308177
